[
  {
    "Country": "Papua New Guinea",
    "City": "Goroka",
    "Iata": "GKA",
    "Airport": "Goroka",
    "Lat": -6.081689,
    "Lon": 145.391881
  },
  {
    "Country": "Papua New Guinea",
    "City": "Madang",
    "Iata": "MAG",
    "Airport": "Madang",
    "Lat": -5.207083,
    "Lon": 145.7887
  },
  {
    "Country": "Papua New Guinea",
    "City": "Mount Hagen",
    "Iata": "HGU",
    "Airport": "Mount Hagen",
    "Lat": -5.826789,
    "Lon": 144.295861
  },
  {
    "Country": "Papua New Guinea",
    "City": "Nadzab",
    "Iata": "LAE",
    "Airport": "Nadzab",
    "Lat": -6.569828,
    "Lon": 146.726242
  },
  {
    "Country": "Papua New Guinea",
    "City": "Port Moresby",
    "Iata": "POM",
    "Airport": "Port Moresby Jacksons Intl",
    "Lat": -9.443383,
    "Lon": 147.22005
  },
  {
    "Country": "Papua New Guinea",
    "City": "Wewak",
    "Iata": "WWK",
    "Airport": "Wewak Intl",
    "Lat": -3.583828,
    "Lon": 143.669186
  },
  {
    "Country": "Greenland",
    "City": "Narssarssuaq",
    "Iata": "UAK",
    "Airport": "Narsarsuaq",
    "Lat": 61.160517,
    "Lon": -45.425978
  },
  {
    "Country": "Greenland",
    "City": "Godthaab",
    "Iata": "GOH",
    "Airport": "Nuuk",
    "Lat": 64.190922,
    "Lon": -51.678064
  },
  {
    "Country": "Greenland",
    "City": "Sondrestrom",
    "Iata": "SFJ",
    "Airport": "Sondre Stromfjord",
    "Lat": 67.016969,
    "Lon": -50.689325
  },
  {
    "Country": "Greenland",
    "City": "Thule",
    "Iata": "THU",
    "Airport": "Thule Air Base",
    "Lat": 76.531203,
    "Lon": -68.703161
  },
  {
    "Country": "Iceland",
    "City": "Akureyri",
    "Iata": "AEY",
    "Airport": "Akureyri",
    "Lat": 65.659994,
    "Lon": -18.072703
  },
  {
    "Country": "Iceland",
    "City": "Egilsstadir",
    "Iata": "EGS",
    "Airport": "Egilsstadir",
    "Lat": 65.283333,
    "Lon": -14.401389
  },
  {
    "Country": "Iceland",
    "City": "Hofn",
    "Iata": "HFN",
    "Airport": "Hornafjordur",
    "Lat": 64.295556,
    "Lon": -15.227222
  },
  {
    "Country": "Iceland",
    "City": "Husavik",
    "Iata": "HZK",
    "Airport": "Husavik",
    "Lat": 65.952328,
    "Lon": -17.425978
  },
  {
    "Country": "Iceland",
    "City": "Isafjordur",
    "Iata": "IFJ",
    "Airport": "Isafjordur",
    "Lat": 66.058056,
    "Lon": -23.135278
  },
  {
    "Country": "Iceland",
    "City": "Keflavik",
    "Iata": "KEF",
    "Airport": "Keflavik International Airport",
    "Lat": 63.985,
    "Lon": -22.605556
  },
  {
    "Country": "Iceland",
    "City": "Patreksfjordur",
    "Iata": "PFJ",
    "Airport": "Patreksfjordur",
    "Lat": 65.555833,
    "Lon": -23.965
  },
  {
    "Country": "Iceland",
    "City": "Reykjavik",
    "Iata": "RKV",
    "Airport": "Reykjavik",
    "Lat": 64.13,
    "Lon": -21.940556
  },
  {
    "Country": "Iceland",
    "City": "Siglufjordur",
    "Iata": "SIJ",
    "Airport": "Siglufjordur",
    "Lat": 66.133333,
    "Lon": -18.916667
  },
  {
    "Country": "Iceland",
    "City": "Vestmannaeyjar",
    "Iata": "VEY",
    "Airport": "Vestmannaeyjar",
    "Lat": 63.424303,
    "Lon": -20.278875
  },
  {
    "Country": "Canada",
    "City": "Sault Sainte Marie",
    "Iata": "YAM",
    "Airport": "Sault Ste Marie",
    "Lat": 46.485001,
    "Lon": -84.509445
  },
  {
    "Country": "Canada",
    "City": "Winnipeg",
    "Iata": "YAV",
    "Airport": "Winnipeg St Andrews",
    "Lat": 50.056389,
    "Lon": -97.0325
  },
  {
    "Country": "Canada",
    "City": "Halifax",
    "Iata": "YAW",
    "Airport": "Shearwater",
    "Lat": 44.639721,
    "Lon": -63.499444
  },
  {
    "Country": "Canada",
    "City": "St. Anthony",
    "Iata": "YAY",
    "Airport": "St Anthony",
    "Lat": 51.391944,
    "Lon": -56.083056
  },
  {
    "Country": "Canada",
    "City": "Tofino",
    "Iata": "YAZ",
    "Airport": "Tofino",
    "Lat": 49.082222,
    "Lon": -125.7725
  },
  {
    "Country": "Canada",
    "City": "Pelly Bay",
    "Iata": "YBB",
    "Airport": "Kugaaruk",
    "Lat": 68.534444,
    "Lon": -89.808056
  },
  {
    "Country": "Canada",
    "City": "Baie Comeau",
    "Iata": "YBC",
    "Airport": "Baie Comeau",
    "Lat": 49.1325,
    "Lon": -68.204444
  },
  {
    "Country": "Canada",
    "City": "Bagotville",
    "Iata": "YBG",
    "Airport": "Bagotville",
    "Lat": 48.330555,
    "Lon": -70.996391
  },
  {
    "Country": "Canada",
    "City": "Baker Lake",
    "Iata": "YBK",
    "Airport": "Baker Lake",
    "Lat": 64.298889,
    "Lon": -96.077778
  },
  {
    "Country": "Canada",
    "City": "Campbell River",
    "Iata": "YBL",
    "Airport": "Campbell River",
    "Lat": 49.950832,
    "Lon": -125.270833
  },
  {
    "Country": "Canada",
    "City": "Brandon",
    "Iata": "YBR",
    "Airport": "Brandon Muni",
    "Lat": 49.91,
    "Lon": -99.951944
  },
  {
    "Country": "Canada",
    "City": "Cambridge Bay",
    "Iata": "YCB",
    "Airport": "Cambridge Bay",
    "Lat": 69.108055,
    "Lon": -105.138333
  },
  {
    "Country": "Canada",
    "City": "Nanaimo",
    "Iata": "YCD",
    "Airport": "Nanaimo",
    "Lat": 49.052333,
    "Lon": -123.870167
  },
  {
    "Country": "Canada",
    "City": "Castlegar",
    "Iata": "YCG",
    "Airport": "Castlegar",
    "Lat": 49.296389,
    "Lon": -117.6325
  },
  {
    "Country": "Canada",
    "City": "Chatham",
    "Iata": "YCH",
    "Airport": "Miramichi",
    "Lat": 47.007778,
    "Lon": -65.449167
  },
  {
    "Country": "Canada",
    "City": "Charlo",
    "Iata": "YCL",
    "Airport": "Charlo",
    "Lat": 47.990833,
    "Lon": -66.330278
  },
  {
    "Country": "Canada",
    "City": "Coppermine",
    "Iata": "YCO",
    "Airport": "Kugluktuk",
    "Lat": 67.816667,
    "Lon": -115.143889
  },
  {
    "Country": "Canada",
    "City": "Coronation",
    "Iata": "YCT",
    "Airport": "Coronation",
    "Lat": 52.075001,
    "Lon": -111.445278
  },
  {
    "Country": "Canada",
    "City": "Chilliwack",
    "Iata": "YCW",
    "Airport": "Chilliwack",
    "Lat": 49.152779,
    "Lon": -121.93889
  },
  {
    "Country": "Canada",
    "City": "Clyde River",
    "Iata": "YCY",
    "Airport": "Clyde River",
    "Lat": 70.486111,
    "Lon": -68.516667
  },
  {
    "Country": "Canada",
    "City": "Coral Harbour",
    "Iata": "YZS",
    "Airport": "Fairmont Hot Springs",
    "Lat": 64.193333,
    "Lon": -83.359444
  },
  {
    "Country": "Canada",
    "City": "Dawson",
    "Iata": "YDA",
    "Airport": "Dawson City",
    "Lat": 64.043056,
    "Lon": -139.127778
  },
  {
    "Country": "Canada",
    "City": "Burwash",
    "Iata": "YDB",
    "Airport": "Burwash",
    "Lat": 61.371111,
    "Lon": -139.040556
  },
  {
    "Country": "Canada",
    "City": "Princeton",
    "Iata": "YDC",
    "Airport": "Princeton",
    "Lat": 49.468056,
    "Lon": -120.511389
  },
  {
    "Country": "Canada",
    "City": "Deer Lake",
    "Iata": "YDF",
    "Airport": "Deer Lake",
    "Lat": 49.210833,
    "Lon": -57.391388
  },
  {
    "Country": "Canada",
    "City": "Dease Lake",
    "Iata": "YDL",
    "Airport": "Dease Lake",
    "Lat": 58.422222,
    "Lon": -130.032222
  },
  {
    "Country": "Canada",
    "City": "Dauphin",
    "Iata": "YDN",
    "Airport": "Dauphin Barker",
    "Lat": 51.100834,
    "Lon": -100.0525
  },
  {
    "Country": "Canada",
    "City": "Dawson Creek",
    "Iata": "YDQ",
    "Airport": "Dawson Creek",
    "Lat": 55.742333,
    "Lon": -120.183
  },
  {
    "Country": "Canada",
    "City": "Edmonton",
    "Iata": "YEG",
    "Airport": "Edmonton Intl",
    "Lat": 53.309723,
    "Lon": -113.579722
  },
  {
    "Country": "Canada",
    "City": "Eskimo Point",
    "Iata": "YEK",
    "Airport": "Arviat",
    "Lat": 61.094166,
    "Lon": -94.070833
  },
  {
    "Country": "Canada",
    "City": "Estevan",
    "Iata": "YEN",
    "Airport": "Estevan",
    "Lat": 49.210278,
    "Lon": -102.965833
  },
  {
    "Country": "Canada",
    "City": "Edson",
    "Iata": "YET",
    "Airport": "Edson",
    "Lat": 53.578888,
    "Lon": -116.465
  },
  {
    "Country": "Canada",
    "City": "Eureka",
    "Iata": "YEU",
    "Airport": "Eureka",
    "Lat": 79.994722,
    "Lon": -85.814167
  },
  {
    "Country": "Canada",
    "City": "Inuvik",
    "Iata": "YEV",
    "Airport": "Inuvik Mike Zubko",
    "Lat": 68.304167,
    "Lon": -133.482778
  },
  {
    "Country": "Canada",
    "City": "Iqaluit",
    "Iata": "YFB",
    "Airport": "Iqaluit",
    "Lat": 63.75639,
    "Lon": -68.555832
  },
  {
    "Country": "Canada",
    "City": "Fredericton",
    "Iata": "YFC",
    "Airport": "Fredericton",
    "Lat": 45.868889,
    "Lon": -66.537222
  },
  {
    "Country": "Canada",
    "City": "Forestville",
    "Iata": "",
    "Airport": "Forestville",
    "Lat": 48.746111,
    "Lon": -69.097222
  },
  {
    "Country": "Canada",
    "City": "Flin Flon",
    "Iata": "YFO",
    "Airport": "Flin Flon",
    "Lat": 54.678055,
    "Lon": -101.681667
  },
  {
    "Country": "Canada",
    "City": "Fort Resolution",
    "Iata": "YFR",
    "Airport": "Fort Resolution",
    "Lat": 61.180832,
    "Lon": -113.689722
  },
  {
    "Country": "Canada",
    "City": "Fort Simpson",
    "Iata": "YFS",
    "Airport": "Fort Simpson",
    "Lat": 61.760153,
    "Lon": -121.236525
  },
  {
    "Country": "Canada",
    "City": "Kingston",
    "Iata": "YGK",
    "Airport": "Kingston",
    "Lat": 44.225277,
    "Lon": -76.596944
  },
  {
    "Country": "Canada",
    "City": "La Grande Riviere",
    "Iata": "YGL",
    "Airport": "La Grande Riviere",
    "Lat": 53.625278,
    "Lon": -77.704167
  },
  {
    "Country": "Canada",
    "City": "Gaspe",
    "Iata": "YGP",
    "Airport": "Gaspe",
    "Lat": 48.775278,
    "Lon": -64.478611
  },
  {
    "Country": "Canada",
    "City": "Geraldton",
    "Iata": "YGQ",
    "Airport": "Geraldton Greenstone Regional",
    "Lat": 49.778332,
    "Lon": -86.939445
  },
  {
    "Country": "Canada",
    "City": "Iles De La Madeleine",
    "Iata": "YGR",
    "Airport": "Iles De La Madeleine",
    "Lat": 47.424721,
    "Lon": -61.778056
  },
  {
    "Country": "Canada",
    "City": "Hudson Bay",
    "Iata": "YHB",
    "Airport": "Hudson Bay",
    "Lat": 52.816666,
    "Lon": -102.31139
  },
  {
    "Country": "Canada",
    "City": "Dryden",
    "Iata": "YHD",
    "Airport": "Dryden Rgnl",
    "Lat": 49.831667,
    "Lon": -92.744167
  },
  {
    "Country": "Canada",
    "City": "Holman Island",
    "Iata": "YHI",
    "Airport": "Ulukhaktok Holman",
    "Lat": 70.762778,
    "Lon": -117.806111
  },
  {
    "Country": "Canada",
    "City": "Gjoa Haven",
    "Iata": "YHK",
    "Airport": "Gjoa Haven",
    "Lat": 68.635556,
    "Lon": -95.849722
  },
  {
    "Country": "Canada",
    "City": "Hamilton",
    "Iata": "YHM",
    "Airport": "Hamilton",
    "Lat": 43.173611,
    "Lon": -79.935
  },
  {
    "Country": "Canada",
    "City": "Montreal",
    "Iata": "YHU",
    "Airport": "St Hubert",
    "Lat": 45.5175,
    "Lon": -73.416944
  },
  {
    "Country": "Canada",
    "City": "Hay River",
    "Iata": "YHY",
    "Airport": "Hay River",
    "Lat": 60.839722,
    "Lon": -115.782778
  },
  {
    "Country": "Canada",
    "City": "Halifax",
    "Iata": "YHZ",
    "Airport": "Halifax Intl",
    "Lat": 44.880833,
    "Lon": -63.50861
  },
  {
    "Country": "Canada",
    "City": "Atikokan",
    "Iata": "YIB",
    "Airport": "Atikokan Muni",
    "Lat": 48.773888,
    "Lon": -91.638611
  },
  {
    "Country": "Canada",
    "City": "Pond Inlet",
    "Iata": "YIO",
    "Airport": "Pond Inlet",
    "Lat": 72.683334,
    "Lon": -77.966667
  },
  {
    "Country": "Canada",
    "City": "St. Jean",
    "Iata": "YJN",
    "Airport": "St Jean",
    "Lat": 45.294445,
    "Lon": -73.281111
  },
  {
    "Country": "Canada",
    "City": "Stephenville",
    "Iata": "YJT",
    "Airport": "Stephenville",
    "Lat": 48.544167,
    "Lon": -58.549999
  },
  {
    "Country": "Canada",
    "City": "Kamloops",
    "Iata": "YKA",
    "Airport": "Kamloops",
    "Lat": 50.702222,
    "Lon": -120.444444
  },
  {
    "Country": "Canada",
    "City": "Waterloo",
    "Iata": "YKF",
    "Airport": "Waterloo",
    "Lat": 43.460833,
    "Lon": -80.378611
  },
  {
    "Country": "Canada",
    "City": "Schefferville",
    "Iata": "YKL",
    "Airport": "Schefferville",
    "Lat": 54.805278,
    "Lon": -66.805278
  },
  {
    "Country": "Canada",
    "City": "Kindersley",
    "Iata": "YKY",
    "Airport": "Kindersley",
    "Lat": 51.5175,
    "Lon": -109.180833
  },
  {
    "Country": "Canada",
    "City": "Toronto",
    "Iata": "YKZ",
    "Airport": "Buttonville Muni",
    "Lat": 43.862221,
    "Lon": -79.37
  },
  {
    "Country": "Canada",
    "City": "Chapleau",
    "Iata": "YLD",
    "Airport": "Chapleau",
    "Lat": 47.82,
    "Lon": -83.346667
  },
  {
    "Country": "Canada",
    "City": "Meadow Lake",
    "Iata": "YLJ",
    "Airport": "Meadow Lake",
    "Lat": 54.125278,
    "Lon": -108.522778
  },
  {
    "Country": "Canada",
    "City": "Lloydminster",
    "Iata": "YLL",
    "Airport": "Lloydminster",
    "Lat": 53.309166,
    "Lon": -110.0725
  },
  {
    "Country": "Canada",
    "City": "Alert",
    "Iata": "YLT",
    "Airport": "Alert",
    "Lat": 82.517778,
    "Lon": -62.280556
  },
  {
    "Country": "Canada",
    "City": "Kelowna",
    "Iata": "YLW",
    "Airport": "Kelowna",
    "Lat": 49.956112,
    "Lon": -119.377778
  },
  {
    "Country": "Canada",
    "City": "Mayo",
    "Iata": "YMA",
    "Airport": "Mayo",
    "Lat": 63.616389,
    "Lon": -135.868333
  },
  {
    "Country": "Canada",
    "City": "Moose Jaw",
    "Iata": "YMJ",
    "Airport": "Moose Jaw Air Vice Marshal C M Mcewen",
    "Lat": 50.330278,
    "Lon": -105.559167
  },
  {
    "Country": "Canada",
    "City": "Fort Mcmurray",
    "Iata": "YMM",
    "Airport": "Fort Mcmurray",
    "Lat": 56.653333,
    "Lon": -111.221944
  },
  {
    "Country": "Canada",
    "City": "Moosonee",
    "Iata": "YMO",
    "Airport": "Moosonee",
    "Lat": 51.291111,
    "Lon": -80.607778
  },
  {
    "Country": "Canada",
    "City": "Maniwaki",
    "Iata": "YMW",
    "Airport": "Maniwaki",
    "Lat": 46.272778,
    "Lon": -75.990556
  },
  {
    "Country": "Canada",
    "City": "Montreal",
    "Iata": "YMX",
    "Airport": "Montreal Intl Mirabel",
    "Lat": 45.681944,
    "Lon": -74.005278
  },
  {
    "Country": "Canada",
    "City": "Natashquan",
    "Iata": "YNA",
    "Airport": "Natashquan",
    "Lat": 50.19,
    "Lon": -61.789167
  },
  {
    "Country": "Canada",
    "City": "Gatineau",
    "Iata": "YND",
    "Airport": "Gatineau",
    "Lat": 45.521694,
    "Lon": -75.563589
  },
  {
    "Country": "Canada",
    "City": "Matagami",
    "Iata": "YNM",
    "Airport": "Matagami",
    "Lat": 49.761667,
    "Lon": -77.802778
  },
  {
    "Country": "Canada",
    "City": "Old Crow",
    "Iata": "YOC",
    "Airport": "Old Crow",
    "Lat": 67.570556,
    "Lon": -139.839167
  },
  {
    "Country": "Canada",
    "City": "Cold Lake",
    "Iata": "YOD",
    "Airport": "Cold Lake",
    "Lat": 54.404999,
    "Lon": -110.279444
  },
  {
    "Country": "Canada",
    "City": "High Level",
    "Iata": "YOJ",
    "Airport": "High Level",
    "Lat": 58.621389,
    "Lon": -117.164722
  },
  {
    "Country": "Canada",
    "City": "Ottawa",
    "Iata": "YOW",
    "Airport": "Ottawa Macdonald Cartier Intl",
    "Lat": 45.3225,
    "Lon": -75.669167
  },
  {
    "Country": "Canada",
    "City": "Prince Albert",
    "Iata": "YPA",
    "Airport": "Prince Albert Glass Field",
    "Lat": 53.214167,
    "Lon": -105.672778
  },
  {
    "Country": "Canada",
    "City": "Peace River",
    "Iata": "YPE",
    "Airport": "Peace River",
    "Lat": 56.226944,
    "Lon": -117.447222
  },
  {
    "Country": "Canada",
    "City": "Portage-la-prairie",
    "Iata": "YPG",
    "Airport": "Southport",
    "Lat": 49.903056,
    "Lon": -98.273889
  },
  {
    "Country": "Canada",
    "City": "Pitt Meadows",
    "Iata": "",
    "Airport": "Pitt Meadows",
    "Lat": 49.21611,
    "Lon": -122.71
  },
  {
    "Country": "Canada",
    "City": "Pickle Lake",
    "Iata": "YPL",
    "Airport": "Pickle Lake",
    "Lat": 51.446388,
    "Lon": -90.214167
  },
  {
    "Country": "Canada",
    "City": "Port Menier",
    "Iata": "YPN",
    "Airport": "Port Menier",
    "Lat": 49.836389,
    "Lon": -64.288611
  },
  {
    "Country": "Canada",
    "City": "Peterborough",
    "Iata": "YPQ",
    "Airport": "Peterborough",
    "Lat": 44.23,
    "Lon": -78.363333
  },
  {
    "Country": "Canada",
    "City": "Prince Pupert",
    "Iata": "YPR",
    "Airport": "Prince Rupert",
    "Lat": 54.28611,
    "Lon": -130.444722
  },
  {
    "Country": "Canada",
    "City": "Fort Chipewyan",
    "Iata": "YPY",
    "Airport": "Fort Chipewyan",
    "Lat": 58.767223,
    "Lon": -111.117222
  },
  {
    "Country": "Canada",
    "City": "Muskoka",
    "Iata": "YQA",
    "Airport": "Muskoka",
    "Lat": 44.974722,
    "Lon": -79.303333
  },
  {
    "Country": "Canada",
    "City": "Quebec",
    "Iata": "YQB",
    "Airport": "Quebec Jean Lesage Intl",
    "Lat": 46.791111,
    "Lon": -71.393333
  },
  {
    "Country": "Canada",
    "City": "Red Deer Industrial",
    "Iata": "YQF",
    "Airport": "Red Deer Regional",
    "Lat": 52.182222,
    "Lon": -113.894444
  },
  {
    "Country": "Canada",
    "City": "Windsor",
    "Iata": "YQG",
    "Airport": "Windsor",
    "Lat": 42.275556,
    "Lon": -82.955556
  },
  {
    "Country": "Canada",
    "City": "Watson Lake",
    "Iata": "YQH",
    "Airport": "Watson Lake",
    "Lat": 60.116389,
    "Lon": -128.8225
  },
  {
    "Country": "Canada",
    "City": "Kenora",
    "Iata": "YQK",
    "Airport": "Kenora",
    "Lat": 49.788334,
    "Lon": -94.363056
  },
  {
    "Country": "Canada",
    "City": "Lethbridge",
    "Iata": "YQL",
    "Airport": "Lethbridge",
    "Lat": 49.630278,
    "Lon": -112.799722
  },
  {
    "Country": "Canada",
    "City": "Moncton",
    "Iata": "YQM",
    "Airport": "Greater Moncton Intl",
    "Lat": 46.112221,
    "Lon": -64.678611
  },
  {
    "Country": "Canada",
    "City": "Comox",
    "Iata": "YQQ",
    "Airport": "Comox",
    "Lat": 49.710833,
    "Lon": -124.886667
  },
  {
    "Country": "Canada",
    "City": "Regina",
    "Iata": "YQR",
    "Airport": "Regina Intl",
    "Lat": 50.431944,
    "Lon": -104.665833
  },
  {
    "Country": "Canada",
    "City": "Thunder Bay",
    "Iata": "YQT",
    "Airport": "Thunder Bay",
    "Lat": 48.371944,
    "Lon": -89.323889
  },
  {
    "Country": "Canada",
    "City": "Grande Prairie",
    "Iata": "YQU",
    "Airport": "Grande Prairie",
    "Lat": 55.179722,
    "Lon": -118.885
  },
  {
    "Country": "Canada",
    "City": "Yorkton",
    "Iata": "YQV",
    "Airport": "Yorkton Muni",
    "Lat": 51.264721,
    "Lon": -102.461667
  },
  {
    "Country": "Canada",
    "City": "North Battleford",
    "Iata": "YQW",
    "Airport": "North Battleford",
    "Lat": 52.769167,
    "Lon": -108.24361
  },
  {
    "Country": "Canada",
    "City": "Gander",
    "Iata": "YQX",
    "Airport": "Gander Intl",
    "Lat": 48.936944,
    "Lon": -54.568056
  },
  {
    "Country": "Canada",
    "City": "Sydney",
    "Iata": "YQY",
    "Airport": "Sydney",
    "Lat": 46.161388,
    "Lon": -60.047779
  },
  {
    "Country": "Canada",
    "City": "Quesnel",
    "Iata": "YQZ",
    "Airport": "Quesnel",
    "Lat": 53.026112,
    "Lon": -122.510278
  },
  {
    "Country": "Canada",
    "City": "Resolute",
    "Iata": "YRB",
    "Airport": "Resolute Bay",
    "Lat": 74.716944,
    "Lon": -94.969444
  },
  {
    "Country": "Canada",
    "City": "Riviere Du Loup",
    "Iata": "YRI",
    "Airport": "Riviere Du Loup",
    "Lat": 47.764444,
    "Lon": -69.584722
  },
  {
    "Country": "Canada",
    "City": "Roberval",
    "Iata": "YRJ",
    "Airport": "Roberval",
    "Lat": 48.52,
    "Lon": -72.265556
  },
  {
    "Country": "Canada",
    "City": "Rocky Mountain House",
    "Iata": "YRM",
    "Airport": "Rocky Mountain House",
    "Lat": 52.429722,
    "Lon": -114.904167
  },
  {
    "Country": "Canada",
    "City": "Rankin Inlet",
    "Iata": "YRT",
    "Airport": "Rankin Inlet",
    "Lat": 62.81139,
    "Lon": -92.115833
  },
  {
    "Country": "Canada",
    "City": "Sudbury",
    "Iata": "YSB",
    "Airport": "Sudbury",
    "Lat": 46.625,
    "Lon": -80.798889
  },
  {
    "Country": "Canada",
    "City": "Sherbrooke",
    "Iata": "YSC",
    "Airport": "Sherbrooke",
    "Lat": 45.438611,
    "Lon": -71.691389
  },
  {
    "Country": "Canada",
    "City": "St. John",
    "Iata": "YSJ",
    "Airport": "Saint John",
    "Lat": 45.316111,
    "Lon": -65.890278
  },
  {
    "Country": "Canada",
    "City": "Fort Smith",
    "Iata": "YSM",
    "Airport": "Fort Smith",
    "Lat": 60.020278,
    "Lon": -111.961944
  },
  {
    "Country": "Canada",
    "City": "Nanisivik",
    "Iata": "YSR",
    "Airport": "Nanisivik",
    "Lat": 72.982222,
    "Lon": -84.613611
  },
  {
    "Country": "Canada",
    "City": "Summerside",
    "Iata": "YSU",
    "Airport": "Summerside",
    "Lat": 46.440556,
    "Lon": -63.833611
  },
  {
    "Country": "Canada",
    "City": "Sachs Harbour",
    "Iata": "YSY",
    "Airport": "Sachs Harbour",
    "Lat": 71.993889,
    "Lon": -125.2425
  },
  {
    "Country": "Canada",
    "City": "Cape Dorset",
    "Iata": "YTE",
    "Airport": "Cape Dorset",
    "Lat": 64.23,
    "Lon": -76.526667
  },
  {
    "Country": "Canada",
    "City": "Thompson",
    "Iata": "YTH",
    "Airport": "Thompson",
    "Lat": 55.801111,
    "Lon": -97.864166
  },
  {
    "Country": "Canada",
    "City": "Trenton",
    "Iata": "YTR",
    "Airport": "Trenton",
    "Lat": 44.118889,
    "Lon": -77.528056
  },
  {
    "Country": "Canada",
    "City": "Timmins",
    "Iata": "YTS",
    "Airport": "Timmins",
    "Lat": 48.569721,
    "Lon": -81.376667
  },
  {
    "Country": "Canada",
    "City": "Toronto",
    "Iata": "YTZ",
    "Airport": "City Centre",
    "Lat": 43.627499,
    "Lon": -79.396167
  },
  {
    "Country": "Canada",
    "City": "Tuktoyaktuk",
    "Iata": "YUB",
    "Airport": "Tuktoyaktuk",
    "Lat": 69.433334,
    "Lon": -133.026389
  },
  {
    "Country": "Canada",
    "City": "Montreal",
    "Iata": "YUL",
    "Airport": "Pierre Elliott Trudeau Intl",
    "Lat": 45.470556,
    "Lon": -73.740833
  },
  {
    "Country": "Canada",
    "City": "Repulse Bay",
    "Iata": "YUT",
    "Airport": "Repulse Bay",
    "Lat": 66.521389,
    "Lon": -86.224722
  },
  {
    "Country": "Canada",
    "City": "Hall Beach",
    "Iata": "YUX",
    "Airport": "Hall Beach",
    "Lat": 68.776111,
    "Lon": -81.243611
  },
  {
    "Country": "Canada",
    "City": "Rouyn",
    "Iata": "YUY",
    "Airport": "Rouyn Noranda",
    "Lat": 48.206111,
    "Lon": -78.835556
  },
  {
    "Country": "Canada",
    "City": "La Ronge",
    "Iata": "YVC",
    "Airport": "La Ronge",
    "Lat": 55.15139,
    "Lon": -105.261944
  },
  {
    "Country": "Canada",
    "City": "Vermillion",
    "Iata": "YVG",
    "Airport": "Vermilion",
    "Lat": 53.355833,
    "Lon": -110.82389
  },
  {
    "Country": "Canada",
    "City": "Broughton Island",
    "Iata": "YVM",
    "Airport": "Qikiqtarjuaq",
    "Lat": 67.545833,
    "Lon": -64.031389
  },
  {
    "Country": "Canada",
    "City": "Val D\'or",
    "Iata": "YVO",
    "Airport": "Val D Or",
    "Lat": 48.053333,
    "Lon": -77.782778
  },
  {
    "Country": "Canada",
    "City": "Quujjuaq",
    "Iata": "YVP",
    "Airport": "Kuujjuaq",
    "Lat": 58.096111,
    "Lon": -68.426944
  },
  {
    "Country": "Canada",
    "City": "Norman Wells",
    "Iata": "YVQ",
    "Airport": "Norman Wells",
    "Lat": 65.281617,
    "Lon": -126.798219
  },
  {
    "Country": "Canada",
    "City": "Vancouver",
    "Iata": "YVR",
    "Airport": "Vancouver Intl",
    "Lat": 49.193889,
    "Lon": -123.184444
  },
  {
    "Country": "Canada",
    "City": "Buffalo Narrows",
    "Iata": "YVT",
    "Airport": "Buffalo Narrows",
    "Lat": 55.841944,
    "Lon": -108.4175
  },
  {
    "Country": "Canada",
    "City": "Wiarton",
    "Iata": "YVV",
    "Airport": "Wiarton",
    "Lat": 44.745834,
    "Lon": -81.107222
  },
  {
    "Country": "Canada",
    "City": "Petawawa",
    "Iata": "YWA",
    "Airport": "Petawawa",
    "Lat": 45.952221,
    "Lon": -77.319168
  },
  {
    "Country": "Canada",
    "City": "Winnipeg",
    "Iata": "YWG",
    "Airport": "Winnipeg Intl",
    "Lat": 49.910036,
    "Lon": -97.239886
  },
  {
    "Country": "Canada",
    "City": "Wabush",
    "Iata": "YWK",
    "Airport": "Wabush",
    "Lat": 52.921944,
    "Lon": -66.864444
  },
  {
    "Country": "Canada",
    "City": "Williams Lake",
    "Iata": "YWL",
    "Airport": "Williams Lake",
    "Lat": 52.183056,
    "Lon": -122.054167
  },
  {
    "Country": "Canada",
    "City": "Wrigley",
    "Iata": "YWY",
    "Airport": "Wrigley",
    "Lat": 63.209444,
    "Lon": -123.436667
  },
  {
    "Country": "Canada",
    "City": "Cranbrook",
    "Iata": "YXC",
    "Airport": "Canadian Rockies Intl",
    "Lat": 49.612222,
    "Lon": -115.781944
  },
  {
    "Country": "Canada",
    "City": "Edmonton",
    "Iata": "YXD",
    "Airport": "Edmonton City Centre",
    "Lat": 53.5725,
    "Lon": -113.520556
  },
  {
    "Country": "Canada",
    "City": "Saskatoon",
    "Iata": "YXE",
    "Airport": "Saskatoon J G Diefenbaker Intl",
    "Lat": 52.170834,
    "Lon": -106.699722
  },
  {
    "Country": "Canada",
    "City": "Medicine Hat",
    "Iata": "YXH",
    "Airport": "Medicine Hat",
    "Lat": 50.01889,
    "Lon": -110.720833
  },
  {
    "Country": "Canada",
    "City": "Fort Saint John",
    "Iata": "YXJ",
    "Airport": "Fort St John",
    "Lat": 56.238056,
    "Lon": -120.740278
  },
  {
    "Country": "Canada",
    "City": "Sioux Lookout",
    "Iata": "YXL",
    "Airport": "Sioux Lookout",
    "Lat": 50.113889,
    "Lon": -91.905278
  },
  {
    "Country": "Canada",
    "City": "Pangnirtung",
    "Iata": "YXP",
    "Airport": "Pangnirtung",
    "Lat": 66.145,
    "Lon": -65.713611
  },
  {
    "Country": "Canada",
    "City": "Earlton",
    "Iata": "YXR",
    "Airport": "Timiskaming Rgnl",
    "Lat": 47.695,
    "Lon": -79.848889
  },
  {
    "Country": "Canada",
    "City": "Prince George",
    "Iata": "YXS",
    "Airport": "Prince George",
    "Lat": 53.889444,
    "Lon": -122.678889
  },
  {
    "Country": "Canada",
    "City": "Terrace",
    "Iata": "YXT",
    "Airport": "Terrace",
    "Lat": 54.468508,
    "Lon": -128.576219
  },
  {
    "Country": "Canada",
    "City": "London",
    "Iata": "YXU",
    "Airport": "London",
    "Lat": 43.033056,
    "Lon": -81.151111
  },
  {
    "Country": "Canada",
    "City": "Abbotsford",
    "Iata": "YXX",
    "Airport": "Abbotsford",
    "Lat": 49.025278,
    "Lon": -122.360556
  },
  {
    "Country": "Canada",
    "City": "Whitehorse",
    "Iata": "YXY",
    "Airport": "Whitehorse Intl",
    "Lat": 60.709553,
    "Lon": -135.067269
  },
  {
    "Country": "Canada",
    "City": "North Bay",
    "Iata": "YYB",
    "Airport": "North Bay",
    "Lat": 46.363611,
    "Lon": -79.422778
  },
  {
    "Country": "Canada",
    "City": "Calgary",
    "Iata": "YYC",
    "Airport": "Calgary Intl",
    "Lat": 51.113888,
    "Lon": -114.020278
  },
  {
    "Country": "Canada",
    "City": "Smithers",
    "Iata": "YYD",
    "Airport": "Smithers",
    "Lat": 54.824722,
    "Lon": -127.182778
  },
  {
    "Country": "Canada",
    "City": "Fort Nelson",
    "Iata": "YYE",
    "Airport": "Fort Nelson",
    "Lat": 58.836389,
    "Lon": -122.596944
  },
  {
    "Country": "Canada",
    "City": "Penticton",
    "Iata": "YYF",
    "Airport": "Penticton",
    "Lat": 49.463056,
    "Lon": -119.602222
  },
  {
    "Country": "Canada",
    "City": "Charlottetown",
    "Iata": "YYG",
    "Airport": "Charlottetown",
    "Lat": 46.290001,
    "Lon": -63.121111
  },
  {
    "Country": "Canada",
    "City": "Spence Bay",
    "Iata": "YYH",
    "Airport": "Taloyoak",
    "Lat": 69.546667,
    "Lon": -93.576667
  },
  {
    "Country": "Canada",
    "City": "Victoria",
    "Iata": "YYJ",
    "Airport": "Victoria Intl",
    "Lat": 48.646944,
    "Lon": -123.425833
  },
  {
    "Country": "Canada",
    "City": "Lynn Lake",
    "Iata": "YYL",
    "Airport": "Lynn Lake",
    "Lat": 56.863888,
    "Lon": -101.07611
  },
  {
    "Country": "Canada",
    "City": "Swift Current",
    "Iata": "YYN",
    "Airport": "Swift Current",
    "Lat": 50.291944,
    "Lon": -107.690556
  },
  {
    "Country": "Canada",
    "City": "Churchill",
    "Iata": "YYQ",
    "Airport": "Churchill",
    "Lat": 58.739167,
    "Lon": -94.065
  },
  {
    "Country": "Canada",
    "City": "Goose Bay",
    "Iata": "YYR",
    "Airport": "Goose Bay",
    "Lat": 53.319168,
    "Lon": -60.425833
  },
  {
    "Country": "Canada",
    "City": "St. John\'s",
    "Iata": "YYT",
    "Airport": "St Johns Intl",
    "Lat": 47.61861,
    "Lon": -52.751945
  },
  {
    "Country": "Canada",
    "City": "Kapuskasing",
    "Iata": "YYU",
    "Airport": "Kapuskasing",
    "Lat": 49.413889,
    "Lon": -82.4675
  },
  {
    "Country": "Canada",
    "City": "Armstrong",
    "Iata": "YYW",
    "Airport": "Armstrong",
    "Lat": 50.290279,
    "Lon": -88.909721
  },
  {
    "Country": "Canada",
    "City": "Mont Joli",
    "Iata": "YYY",
    "Airport": "Mont Joli",
    "Lat": 48.608612,
    "Lon": -68.208056
  },
  {
    "Country": "Canada",
    "City": "Toronto",
    "Iata": "YYZ",
    "Airport": "Lester B Pearson Intl",
    "Lat": 43.677223,
    "Lon": -79.630556
  },
  {
    "Country": "Canada",
    "City": "Toronto",
    "Iata": "YZD",
    "Airport": "Downsview",
    "Lat": 43.7425,
    "Lon": -79.465556
  },
  {
    "Country": "Canada",
    "City": "Gore Bay",
    "Iata": "YZE",
    "Airport": "Gore Bay Manitoulin",
    "Lat": 45.885277,
    "Lon": -82.567778
  },
  {
    "Country": "Canada",
    "City": "Yellowknife",
    "Iata": "YZF",
    "Airport": "Yellowknife",
    "Lat": 62.462778,
    "Lon": -114.440278
  },
  {
    "Country": "Canada",
    "City": "Slave Lake",
    "Iata": "YZH",
    "Airport": "Slave Lake",
    "Lat": 55.293056,
    "Lon": -114.777222
  },
  {
    "Country": "Canada",
    "City": "Sandspit",
    "Iata": "YZP",
    "Airport": "Sandspit",
    "Lat": 53.254333,
    "Lon": -131.813833
  },
  {
    "Country": "Canada",
    "City": "Sarnia",
    "Iata": "YZR",
    "Airport": "Chris Hadfield",
    "Lat": 42.999444,
    "Lon": -82.308889
  },
  {
    "Country": "Canada",
    "City": "Port Hardy",
    "Iata": "YZT",
    "Airport": "Port Hardy",
    "Lat": 50.680556,
    "Lon": -127.366667
  },
  {
    "Country": "Canada",
    "City": "Whitecourt",
    "Iata": "YZU",
    "Airport": "Whitecourt",
    "Lat": 54.14389,
    "Lon": -115.786667
  },
  {
    "Country": "Canada",
    "City": "Sept-iles",
    "Iata": "YZV",
    "Airport": "Sept Iles",
    "Lat": 50.223333,
    "Lon": -66.265556
  },
  {
    "Country": "Canada",
    "City": "Teslin",
    "Iata": "YZW",
    "Airport": "Teslin",
    "Lat": 60.172779,
    "Lon": -132.742778
  },
  {
    "Country": "Canada",
    "City": "Greenwood",
    "Iata": "YZX",
    "Airport": "Greenwood",
    "Lat": 44.984444,
    "Lon": -64.916944
  },
  {
    "Country": "Canada",
    "City": "Faro",
    "Iata": "ZFA",
    "Airport": "Faro",
    "Lat": 62.2075,
    "Lon": -133.375833
  },
  {
    "Country": "Canada",
    "City": "Fort Mcpherson",
    "Iata": "ZFM",
    "Airport": "Fort Mcpherson",
    "Lat": 67.4075,
    "Lon": -134.860556
  },
  {
    "Country": "Algeria",
    "City": "Blida",
    "Iata": "",
    "Airport": "Blida",
    "Lat": 36.503613,
    "Lon": 2.814167
  },
  {
    "Country": "Algeria",
    "City": "Bou Saada",
    "Iata": "",
    "Airport": "Bou Saada",
    "Lat": 35.3325,
    "Lon": 4.206389
  },
  {
    "Country": "Algeria",
    "City": "Bejaja",
    "Iata": "BJA",
    "Airport": "Soummam",
    "Lat": 36.711997,
    "Lon": 5.069922
  },
  {
    "Country": "Algeria",
    "City": "Algier",
    "Iata": "ALG",
    "Airport": "Houari Boumediene",
    "Lat": 36.691014,
    "Lon": 3.215408
  },
  {
    "Country": "Algeria",
    "City": "Djanet",
    "Iata": "DJG",
    "Airport": "Tiska",
    "Lat": 24.292767,
    "Lon": 9.452444
  },
  {
    "Country": "Algeria",
    "City": "Boufarik",
    "Iata": "QFD",
    "Airport": "Boufarik",
    "Lat": 36.545834,
    "Lon": 2.876111
  },
  {
    "Country": "Algeria",
    "City": "Reggan",
    "Iata": "",
    "Airport": "Reggane",
    "Lat": 26.710103,
    "Lon": 0.285647
  },
  {
    "Country": "Algeria",
    "City": "Illizi",
    "Iata": "VVZ",
    "Airport": "Illizi Takhamalt",
    "Lat": 26.723536,
    "Lon": 8.622653
  },
  {
    "Country": "Algeria",
    "City": "Ain Oussera",
    "Iata": "",
    "Airport": "Ain Oussera",
    "Lat": 35.525414,
    "Lon": 2.878714
  },
  {
    "Country": "Algeria",
    "City": "Tamanrasset",
    "Iata": "TMR",
    "Airport": "Tamanrasset",
    "Lat": 22.811461,
    "Lon": 5.451075
  },
  {
    "Country": "Algeria",
    "City": "Jijel",
    "Iata": "GJL",
    "Airport": "Jijel",
    "Lat": 36.795136,
    "Lon": 5.873608
  },
  {
    "Country": "Algeria",
    "City": "Mecheria",
    "Iata": "",
    "Airport": "Mecheria",
    "Lat": 33.535853,
    "Lon": -0.242353
  },
  {
    "Country": "Algeria",
    "City": "Relizane",
    "Iata": "",
    "Airport": "Relizane",
    "Lat": 35.752239,
    "Lon": 0.626272
  },
  {
    "Country": "Algeria",
    "City": "Annaba",
    "Iata": "AAE",
    "Airport": "Annaba",
    "Lat": 36.822225,
    "Lon": 7.809167
  },
  {
    "Country": "Algeria",
    "City": "Constantine",
    "Iata": "CZL",
    "Airport": "Mohamed Boudiaf Intl",
    "Lat": 36.276028,
    "Lon": 6.620386
  },
  {
    "Country": "Algeria",
    "City": "Tebessa",
    "Iata": "TEE",
    "Airport": "Cheikh Larbi Tebessi",
    "Lat": 35.431611,
    "Lon": 8.120717
  },
  {
    "Country": "Algeria",
    "City": "Tilrempt",
    "Iata": "HRM",
    "Airport": "Hassi R Mel",
    "Lat": 32.930431,
    "Lon": 3.311542
  },
  {
    "Country": "Algeria",
    "City": "Tiaret",
    "Iata": "TID",
    "Airport": "Bou Chekif",
    "Lat": 35.341136,
    "Lon": 1.463147
  },
  {
    "Country": "Algeria",
    "City": "Bou Sfer",
    "Iata": "",
    "Airport": "Bou Sfer",
    "Lat": 35.735389,
    "Lon": -0.805389
  },
  {
    "Country": "Algeria",
    "City": "Tindouf",
    "Iata": "TIN",
    "Airport": "Tindouf",
    "Lat": 27.700372,
    "Lon": -8.167103
  },
  {
    "Country": "Algeria",
    "City": "Ech-cheliff",
    "Iata": "QAS",
    "Airport": "Ech Cheliff",
    "Lat": 36.212658,
    "Lon": 1.331775
  },
  {
    "Country": "Algeria",
    "City": "Oran",
    "Iata": "TAF",
    "Airport": "Tafaraoui",
    "Lat": 35.542444,
    "Lon": -0.532278
  },
  {
    "Country": "Algeria",
    "City": "Tlemcen",
    "Iata": "TLM",
    "Airport": "Zenata",
    "Lat": 35.016667,
    "Lon": -1.45
  },
  {
    "Country": "Algeria",
    "City": "Oran",
    "Iata": "ORN",
    "Airport": "Es Senia",
    "Lat": 35.623858,
    "Lon": -0.621183
  },
  {
    "Country": "Algeria",
    "City": "Sidi Bel Abbes",
    "Iata": "",
    "Airport": "Sidi Bel Abbes",
    "Lat": 35.171775,
    "Lon": -0.593275
  },
  {
    "Country": "Algeria",
    "City": "Ghriss",
    "Iata": "MUW",
    "Airport": "Ghriss",
    "Lat": 35.207725,
    "Lon": 0.147142
  },
  {
    "Country": "Algeria",
    "City": "Adrar",
    "Iata": "AZR",
    "Airport": "Touat Cheikh Sidi Mohamed Belkebir",
    "Lat": 27.837589,
    "Lon": -0.186414
  },
  {
    "Country": "Algeria",
    "City": "Biskra",
    "Iata": "BSK",
    "Airport": "Biskra",
    "Lat": 34.793289,
    "Lon": 5.738231
  },
  {
    "Country": "Algeria",
    "City": "El Golea",
    "Iata": "ELG",
    "Airport": "El Golea",
    "Lat": 30.571294,
    "Lon": 2.859586
  },
  {
    "Country": "Algeria",
    "City": "Ghardaia",
    "Iata": "GHA",
    "Airport": "Noumerat",
    "Lat": 32.384106,
    "Lon": 3.794114
  },
  {
    "Country": "Algeria",
    "City": "Hassi Messaoud",
    "Iata": "HME",
    "Airport": "Oued Irara",
    "Lat": 31.672972,
    "Lon": 6.140444
  },
  {
    "Country": "Algeria",
    "City": "In Salah",
    "Iata": "INZ",
    "Airport": "In Salah",
    "Lat": 27.251022,
    "Lon": 2.512017
  },
  {
    "Country": "Algeria",
    "City": "Touggourt",
    "Iata": "TGR",
    "Airport": "Sidi Mahdi",
    "Lat": 33.067803,
    "Lon": 6.088672
  },
  {
    "Country": "Algeria",
    "City": "Laghouat",
    "Iata": "LOO",
    "Airport": "Laghouat",
    "Lat": 33.764383,
    "Lon": 2.928344
  },
  {
    "Country": "Algeria",
    "City": "Timimoun",
    "Iata": "TMX",
    "Airport": "Timimoun",
    "Lat": 29.237119,
    "Lon": 0.276033
  },
  {
    "Country": "Algeria",
    "City": "Ouargla",
    "Iata": "OGX",
    "Airport": "Ouargla",
    "Lat": 31.917223,
    "Lon": 5.412778
  },
  {
    "Country": "Algeria",
    "City": "Zarzaitine",
    "Iata": "IAM",
    "Airport": "In Amenas",
    "Lat": 28.05155,
    "Lon": 9.642911
  },
  {
    "Country": "Benin",
    "City": "Cotonou",
    "Iata": "COO",
    "Airport": "Cadjehoun",
    "Lat": 6.357228,
    "Lon": 2.384353
  },
  {
    "Country": "Burkina Faso",
    "City": "Ouagadougou",
    "Iata": "OUA",
    "Airport": "Ouagadougou",
    "Lat": 12.353194,
    "Lon": -1.512417
  },
  {
    "Country": "Burkina Faso",
    "City": "Bobo-dioulasso",
    "Iata": "BOY",
    "Airport": "Bobo Dioulasso",
    "Lat": 11.160056,
    "Lon": -4.330969
  },
  {
    "Country": "Ghana",
    "City": "Accra",
    "Iata": "ACC",
    "Airport": "Kotoka Intl",
    "Lat": 5.605186,
    "Lon": -0.166786
  },
  {
    "Country": "Ghana",
    "City": "Tamale",
    "Iata": "TML",
    "Airport": "Tamale",
    "Lat": 9.557192,
    "Lon": -0.863214
  },
  {
    "Country": "Ghana",
    "City": "Wa",
    "Iata": "",
    "Airport": "Wa",
    "Lat": 10.082664,
    "Lon": -2.507694
  },
  {
    "Country": "Ghana",
    "City": "Sunyani",
    "Iata": "NYI",
    "Airport": "Sunyani",
    "Lat": 7.361828,
    "Lon": -2.328756
  },
  {
    "Country": "Ghana",
    "City": "Takoradi",
    "Iata": "TKD",
    "Airport": "Takoradi",
    "Lat": 4.896056,
    "Lon": -1.774756
  },
  {
    "Country": "Cote d\'Ivoire",
    "City": "Abidjan",
    "Iata": "ABJ",
    "Airport": "Abidjan Felix Houphouet Boigny Intl",
    "Lat": 5.261386,
    "Lon": -3.926294
  },
  {
    "Country": "Cote d\'Ivoire",
    "City": "Bouake",
    "Iata": "BYK",
    "Airport": "Bouake",
    "Lat": 7.7388,
    "Lon": -5.073667
  },
  {
    "Country": "Cote d\'Ivoire",
    "City": "Daloa",
    "Iata": "DJO",
    "Airport": "Daloa",
    "Lat": 6.792808,
    "Lon": -6.473189
  },
  {
    "Country": "Cote d\'Ivoire",
    "City": "Korhogo",
    "Iata": "HGO",
    "Airport": "Korhogo",
    "Lat": 9.387183,
    "Lon": -5.556664
  },
  {
    "Country": "Cote d\'Ivoire",
    "City": "Man",
    "Iata": "MJC",
    "Airport": "Man",
    "Lat": 7.272069,
    "Lon": -7.587364
  },
  {
    "Country": "Cote d\'Ivoire",
    "City": "San Pedro",
    "Iata": "SPY",
    "Airport": "San Pedro",
    "Lat": 4.746717,
    "Lon": -6.660817
  },
  {
    "Country": "Cote d\'Ivoire",
    "City": "Yamoussoukro",
    "Iata": "ASK",
    "Airport": "Yamoussoukro",
    "Lat": 6.903167,
    "Lon": -5.365581
  },
  {
    "Country": "Nigeria",
    "City": "Abuja",
    "Iata": "ABV",
    "Airport": "Nnamdi Azikiwe Intl",
    "Lat": 9.006792,
    "Lon": 7.263172
  },
  {
    "Country": "Nigeria",
    "City": "Akure",
    "Iata": "AKR",
    "Airport": "Akure",
    "Lat": 7.246739,
    "Lon": 5.301008
  },
  {
    "Country": "Nigeria",
    "City": "Benin",
    "Iata": "BNI",
    "Airport": "Benin",
    "Lat": 6.316981,
    "Lon": 5.599503
  },
  {
    "Country": "Nigeria",
    "City": "Calabar",
    "Iata": "CBQ",
    "Airport": "Calabar",
    "Lat": 4.976019,
    "Lon": 8.347197
  },
  {
    "Country": "Nigeria",
    "City": "Enugu",
    "Iata": "ENU",
    "Airport": "Enugu",
    "Lat": 6.474272,
    "Lon": 7.561961
  },
  {
    "Country": "Nigeria",
    "City": "Gusau",
    "Iata": "QUS",
    "Airport": "Gusau",
    "Lat": 12.171667,
    "Lon": 6.696111
  },
  {
    "Country": "Nigeria",
    "City": "Ibadan",
    "Iata": "IBA",
    "Airport": "Ibadan",
    "Lat": 7.362458,
    "Lon": 3.978333
  },
  {
    "Country": "Nigeria",
    "City": "Ilorin",
    "Iata": "ILR",
    "Airport": "Ilorin",
    "Lat": 8.440211,
    "Lon": 4.493919
  },
  {
    "Country": "Nigeria",
    "City": "Jos",
    "Iata": "JOS",
    "Airport": "Yakubu Gowon",
    "Lat": 9.639828,
    "Lon": 8.86905
  },
  {
    "Country": "Nigeria",
    "City": "Kaduna",
    "Iata": "KAD",
    "Airport": "Kaduna",
    "Lat": 10.696025,
    "Lon": 7.320114
  },
  {
    "Country": "Nigeria",
    "City": "Kano",
    "Iata": "KAN",
    "Airport": "Mallam Aminu Intl",
    "Lat": 12.047589,
    "Lon": 8.524622
  },
  {
    "Country": "Nigeria",
    "City": "Maiduguri",
    "Iata": "MIU",
    "Airport": "Maiduguri",
    "Lat": 11.855347,
    "Lon": 13.08095
  },
  {
    "Country": "Nigeria",
    "City": "Makurdi",
    "Iata": "MDI",
    "Airport": "Makurdi",
    "Lat": 7.703883,
    "Lon": 8.613939
  },
  {
    "Country": "Nigeria",
    "City": "Lagos",
    "Iata": "LOS",
    "Airport": "Murtala Muhammed",
    "Lat": 6.577369,
    "Lon": 3.321156
  },
  {
    "Country": "Nigeria",
    "City": "Minna",
    "Iata": "MXJ",
    "Airport": "Minna New",
    "Lat": 9.652172,
    "Lon": 6.462256
  },
  {
    "Country": "Nigeria",
    "City": "Port Hartcourt",
    "Iata": "PHC",
    "Airport": "Port Harcourt Intl",
    "Lat": 5.015494,
    "Lon": 6.949594
  },
  {
    "Country": "Nigeria",
    "City": "Sokoto",
    "Iata": "SKO",
    "Airport": "Sadiq Abubakar Iii Intl",
    "Lat": 12.916322,
    "Lon": 5.207189
  },
  {
    "Country": "Nigeria",
    "City": "Yola",
    "Iata": "YOL",
    "Airport": "Yola",
    "Lat": 9.257553,
    "Lon": 12.430422
  },
  {
    "Country": "Nigeria",
    "City": "Zaria",
    "Iata": "ZAR",
    "Airport": "Zaria",
    "Lat": 11.130192,
    "Lon": 7.685806
  },
  {
    "Country": "Niger",
    "City": "Maradi",
    "Iata": "MFQ",
    "Airport": "Maradi",
    "Lat": 13.502531,
    "Lon": 7.126753
  },
  {
    "Country": "Niger",
    "City": "Niamey",
    "Iata": "NIM",
    "Airport": "Diori Hamani",
    "Lat": 13.481547,
    "Lon": 2.183614
  },
  {
    "Country": "Niger",
    "City": "Tahoua",
    "Iata": "THZ",
    "Airport": "Tahoua",
    "Lat": 14.875658,
    "Lon": 5.265358
  },
  {
    "Country": "Niger",
    "City": "Agadez",
    "Iata": "AJY",
    "Airport": "Manu Dayak",
    "Lat": 16.965997,
    "Lon": 8.000114
  },
  {
    "Country": "Niger",
    "City": "Dirkou",
    "Iata": "",
    "Airport": "Dirkou",
    "Lat": 18.968703,
    "Lon": 12.86865
  },
  {
    "Country": "Niger",
    "City": "Diffa",
    "Iata": "",
    "Airport": "Diffa",
    "Lat": 13.372894,
    "Lon": 12.626686
  },
  {
    "Country": "Niger",
    "City": "Zinder",
    "Iata": "ZND",
    "Airport": "Zinder",
    "Lat": 13.778997,
    "Lon": 8.983761
  },
  {
    "Country": "Tunisia",
    "City": "Monastir",
    "Iata": "MIR",
    "Airport": "Habib Bourguiba Intl",
    "Lat": 35.758056,
    "Lon": 10.754722
  },
  {
    "Country": "Tunisia",
    "City": "Tunis",
    "Iata": "TUN",
    "Airport": "Carthage",
    "Lat": 36.851033,
    "Lon": 10.227217
  },
  {
    "Country": "Tunisia",
    "City": "Bizerte",
    "Iata": "",
    "Airport": "Sidi Ahmed Air Base",
    "Lat": 37.245447,
    "Lon": 9.791453
  },
  {
    "Country": "Tunisia",
    "City": "Remada",
    "Iata": "",
    "Airport": "Remada",
    "Lat": 32.306156,
    "Lon": 10.382108
  },
  {
    "Country": "Tunisia",
    "City": "Gafsa",
    "Iata": "GAF",
    "Airport": "Gafsa",
    "Lat": 34.422022,
    "Lon": 8.822503
  },
  {
    "Country": "Tunisia",
    "City": "Gabes",
    "Iata": "GAE",
    "Airport": "Gabes",
    "Lat": 33.876919,
    "Lon": 10.103333
  },
  {
    "Country": "Tunisia",
    "City": "Bordj El Amri",
    "Iata": "",
    "Airport": "Borj El Amri",
    "Lat": 36.721339,
    "Lon": 9.943147
  },
  {
    "Country": "Tunisia",
    "City": "Djerba",
    "Iata": "DJE",
    "Airport": "Zarzis",
    "Lat": 33.875031,
    "Lon": 10.775461
  },
  {
    "Country": "Tunisia",
    "City": "El Borma",
    "Iata": "EBM",
    "Airport": "El Borma",
    "Lat": 31.704281,
    "Lon": 9.254619
  },
  {
    "Country": "Tunisia",
    "City": "Sfax",
    "Iata": "SFA",
    "Airport": "Thyna",
    "Lat": 34.717953,
    "Lon": 10.690972
  },
  {
    "Country": "Tunisia",
    "City": "Tozeur",
    "Iata": "TOE",
    "Airport": "Nefta",
    "Lat": 33.939722,
    "Lon": 8.110556
  },
  {
    "Country": "Togo",
    "City": "Niatougou",
    "Iata": "LRL",
    "Airport": "Niamtougou International",
    "Lat": 9.767333,
    "Lon": 1.09125
  },
  {
    "Country": "Togo",
    "City": "Lome",
    "Iata": "LFW",
    "Airport": "Gnassingbe Eyadema Intl",
    "Lat": 6.165611,
    "Lon": 1.254511
  },
  {
    "Country": "Belgium",
    "City": "Antwerp",
    "Iata": "ANR",
    "Airport": "Deurne",
    "Lat": 51.189444,
    "Lon": 4.460278
  },
  {
    "Country": "Belgium",
    "City": "Beauvechain",
    "Iata": "",
    "Airport": "Beauvechain",
    "Lat": 50.75861,
    "Lon": 4.768333
  },
  {
    "Country": "Belgium",
    "City": "Kleine Brogel",
    "Iata": "",
    "Airport": "Kleine Brogel",
    "Lat": 51.168333,
    "Lon": 5.47
  },
  {
    "Country": "Belgium",
    "City": "Brussels",
    "Iata": "BRU",
    "Airport": "Brussels Natl",
    "Lat": 50.901389,
    "Lon": 4.484444
  },
  {
    "Country": "Belgium",
    "City": "Bertrix",
    "Iata": "",
    "Airport": "Bertrix",
    "Lat": 49.891667,
    "Lon": 5.223889
  },
  {
    "Country": "Belgium",
    "City": "Charleroi",
    "Iata": "CRL",
    "Airport": "Brussels South",
    "Lat": 50.459197,
    "Lon": 4.453817
  },
  {
    "Country": "Belgium",
    "City": "Chievres",
    "Iata": "",
    "Airport": "Chievres Ab",
    "Lat": 50.575833,
    "Lon": 3.831
  },
  {
    "Country": "Belgium",
    "City": "Koksijde",
    "Iata": "",
    "Airport": "Koksijde",
    "Lat": 51.090278,
    "Lon": 2.652778
  },
  {
    "Country": "Belgium",
    "City": "Florennes",
    "Iata": "",
    "Airport": "Florennes",
    "Lat": 50.243333,
    "Lon": 4.645833
  },
  {
    "Country": "Belgium",
    "City": "Kortrijk-vevelgem",
    "Iata": "QKT",
    "Airport": "Wevelgem",
    "Lat": 50.817222,
    "Lon": 3.204722
  },
  {
    "Country": "Belgium",
    "City": "Liege",
    "Iata": "LGG",
    "Airport": "Liege",
    "Lat": 50.637417,
    "Lon": 5.443222
  },
  {
    "Country": "Belgium",
    "City": "Ostend",
    "Iata": "OST",
    "Airport": "Oostende",
    "Lat": 51.198889,
    "Lon": 2.862222
  },
  {
    "Country": "Belgium",
    "City": "Zutendaal",
    "Iata": "",
    "Airport": "Zutendaal",
    "Lat": 50.9475,
    "Lon": 5.590556
  },
  {
    "Country": "Belgium",
    "City": "Sint-truiden",
    "Iata": "",
    "Airport": "Sint Truiden",
    "Lat": 50.791944,
    "Lon": 5.201667
  },
  {
    "Country": "Belgium",
    "City": "St.-hubert",
    "Iata": "",
    "Airport": "Saint Hubert Mil",
    "Lat": 50.035833,
    "Lon": 5.404167
  },
  {
    "Country": "Belgium",
    "City": "Ursel",
    "Iata": "",
    "Airport": "Ursel",
    "Lat": 51.144133,
    "Lon": 3.474361
  },
  {
    "Country": "Belgium",
    "City": "Weelde",
    "Iata": "",
    "Airport": "Weelde",
    "Lat": 51.394783,
    "Lon": 4.960194
  },
  {
    "Country": "Belgium",
    "City": "Zoersel",
    "Iata": "",
    "Airport": "Zoersel",
    "Lat": 51.264722,
    "Lon": 4.753333
  },
  {
    "Country": "Germany",
    "City": "Bautzen",
    "Iata": "BBJ",
    "Airport": "Bautzen",
    "Lat": 51.193531,
    "Lon": 14.519747
  },
  {
    "Country": "Germany",
    "City": "Altenburg",
    "Iata": "AOC",
    "Airport": "Altenburg Nobitz",
    "Lat": 50.981817,
    "Lon": 12.506361
  },
  {
    "Country": "Germany",
    "City": "Dessau",
    "Iata": "",
    "Airport": "Dessau",
    "Lat": 51.831828,
    "Lon": 12.184033
  },
  {
    "Country": "Germany",
    "City": "Eisenhuettenstadt",
    "Iata": "",
    "Airport": "Eisenhuttenstadt",
    "Lat": 52.197333,
    "Lon": 14.585667
  },
  {
    "Country": "United States",
    "City": "Greencastle",
    "Iata": "4I7",
    "Airport": "Putnam County Airport",
    "Lat": 39.6335556,
    "Lon": -86.8138056
  },
  {
    "Country": "Germany",
    "City": "Suhl",
    "Iata": "",
    "Airport": "Grossenhain",
    "Lat": 51.308111,
    "Lon": 13.554973
  },
  {
    "Country": "Germany",
    "City": "Muehlhausen",
    "Iata": "",
    "Airport": "Merseburg",
    "Lat": 51.363,
    "Lon": 11.940833
  },
  {
    "Country": "Germany",
    "City": "Halle",
    "Iata": "",
    "Airport": "Halle Oppin",
    "Lat": 51.552,
    "Lon": 12.052667
  },
  {
    "Country": "Germany",
    "City": "Riesa",
    "Iata": "",
    "Airport": "Riesa Gohlis",
    "Lat": 51.2935,
    "Lon": 13.356
  },
  {
    "Country": "Germany",
    "City": "Rechlin-laerz",
    "Iata": "",
    "Airport": "Rechlin Larz",
    "Lat": 53.306417,
    "Lon": 12.753139
  },
  {
    "Country": "Germany",
    "City": "Strausberg",
    "Iata": "",
    "Airport": "Strausberg",
    "Lat": 52.579978,
    "Lon": 13.915683
  },
  {
    "Country": "Germany",
    "City": "Schoenhagen",
    "Iata": "",
    "Airport": "Schonhagen",
    "Lat": 52.203258,
    "Lon": 13.158408
  },
  {
    "Country": "Germany",
    "City": "Barth",
    "Iata": "BBH",
    "Airport": "Barth",
    "Lat": 54.33754,
    "Lon": 12.699705
  },
  {
    "Country": "Germany",
    "City": "Jena",
    "Iata": "",
    "Airport": "Jena Schongleina",
    "Lat": 50.915161,
    "Lon": 11.714519
  },
  {
    "Country": "Germany",
    "City": "Kyritz",
    "Iata": "",
    "Airport": "Kyritz",
    "Lat": 52.918833,
    "Lon": 12.425333
  },
  {
    "Country": "Germany",
    "City": "Magdeburg",
    "Iata": "",
    "Airport": "Magdeburg",
    "Lat": 52.073658,
    "Lon": 11.626467
  },
  {
    "Country": "Germany",
    "City": "Rothenburg/ol",
    "Iata": "",
    "Airport": "Rothenburg Gorlitz",
    "Lat": 51.363167,
    "Lon": 14.95
  },
  {
    "Country": "Germany",
    "City": "Anklam",
    "Iata": "",
    "Airport": "Anklam",
    "Lat": 53.8327,
    "Lon": 13.669131
  },
  {
    "Country": "Germany",
    "City": "Cottbus",
    "Iata": "",
    "Airport": "Cottbus Drewitz",
    "Lat": 51.889475,
    "Lon": 14.531986
  },
  {
    "Country": "Germany",
    "City": "Kamenz",
    "Iata": "",
    "Airport": "Kamenz",
    "Lat": 51.29625,
    "Lon": 14.129
  },
  {
    "Country": "Germany",
    "City": "Berlin",
    "Iata": "SXF",
    "Airport": "Schonefeld",
    "Lat": 52.380001,
    "Lon": 13.5225
  },
  {
    "Country": "Germany",
    "City": "Dresden",
    "Iata": "DRS",
    "Airport": "Dresden",
    "Lat": 51.132767,
    "Lon": 13.767161
  },
  {
    "Country": "Germany",
    "City": "Erfurt",
    "Iata": "ERF",
    "Airport": "Erfurt",
    "Lat": 50.979811,
    "Lon": 10.958106
  },
  {
    "Country": "Germany",
    "City": "Frankfurt",
    "Iata": "FRA",
    "Airport": "Frankfurt Main",
    "Lat": 50.026421,
    "Lon": 8.543125
  },
  {
    "Country": "Germany",
    "City": "Munster",
    "Iata": "FMO",
    "Airport": "Munster Osnabruck",
    "Lat": 52.134642,
    "Lon": 7.684831
  },
  {
    "Country": "Germany",
    "City": "Hamburg",
    "Iata": "HAM",
    "Airport": "Hamburg",
    "Lat": 53.630389,
    "Lon": 9.988228
  },
  {
    "Country": "Germany",
    "City": "Berlin",
    "Iata": "THF",
    "Airport": "Tempelhof",
    "Lat": 52.473025,
    "Lon": 13.403944
  },
  {
    "Country": "Germany",
    "City": "Cologne",
    "Iata": "CGN",
    "Airport": "Koln Bonn",
    "Lat": 50.865917,
    "Lon": 7.142744
  },
  {
    "Country": "Germany",
    "City": "Duesseldorf",
    "Iata": "DUS",
    "Airport": "Dusseldorf",
    "Lat": 51.289453,
    "Lon": 6.766775
  },
  {
    "Country": "Germany",
    "City": "Munich",
    "Iata": "MUC",
    "Airport": "Franz Josef Strauss",
    "Lat": 48.353783,
    "Lon": 11.786086
  },
  {
    "Country": "Germany",
    "City": "Nuernberg",
    "Iata": "NUE",
    "Airport": "Nurnberg",
    "Lat": 49.4987,
    "Lon": 11.066897
  },
  {
    "Country": "Germany",
    "City": "Leipzig",
    "Iata": "LEJ",
    "Airport": "Leipzig Halle",
    "Lat": 51.432447,
    "Lon": 12.241633
  },
  {
    "Country": "Germany",
    "City": "Saarbruecken",
    "Iata": "SCN",
    "Airport": "Saarbrucken",
    "Lat": 49.214553,
    "Lon": 7.109508
  },
  {
    "Country": "Germany",
    "City": "Stuttgart",
    "Iata": "STR",
    "Airport": "Stuttgart",
    "Lat": 48.689878,
    "Lon": 9.221964
  },
  {
    "Country": "Germany",
    "City": "Berlin",
    "Iata": "TXL",
    "Airport": "Tegel",
    "Lat": 52.559686,
    "Lon": 13.287711
  },
  {
    "Country": "Germany",
    "City": "Hannover",
    "Iata": "HAJ",
    "Airport": "Hannover",
    "Lat": 52.461056,
    "Lon": 9.685078
  },
  {
    "Country": "Germany",
    "City": "Bremen",
    "Iata": "BRE",
    "Airport": "Neuenland",
    "Lat": 53.0475,
    "Lon": 8.786667
  },
  {
    "Country": "Germany",
    "City": "Egelsbach",
    "Iata": "",
    "Airport": "Egelsbach",
    "Lat": 49.960833,
    "Lon": 8.6415
  },
  {
    "Country": "Germany",
    "City": "Hahn",
    "Iata": "HHN",
    "Airport": "Frankfurt Hahn",
    "Lat": 49.948672,
    "Lon": 7.263892
  },
  {
    "Country": "Germany",
    "City": "Mannheim",
    "Iata": "MHG",
    "Airport": "Mannheim City",
    "Lat": 49.472706,
    "Lon": 8.514264
  },
  {
    "Country": "Germany",
    "City": "Allendorf",
    "Iata": "",
    "Airport": "Allendorf Eder",
    "Lat": 51.034878,
    "Lon": 8.680839
  },
  {
    "Country": "Germany",
    "City": "Worms",
    "Iata": "",
    "Airport": "Worms",
    "Lat": 49.606511,
    "Lon": 8.3684
  },
  {
    "Country": "Germany",
    "City": "Mainz",
    "Iata": "",
    "Airport": "Mainz Finthen",
    "Lat": 49.968931,
    "Lon": 8.148336
  },
  {
    "Country": "Germany",
    "City": "Eisenach",
    "Iata": "",
    "Airport": "Eisenach Kindel",
    "Lat": 50.992797,
    "Lon": 10.472711
  },
  {
    "Country": "Germany",
    "City": "Siegerland",
    "Iata": "",
    "Airport": "Siegerland",
    "Lat": 50.707658,
    "Lon": 8.082969
  },
  {
    "Country": "Germany",
    "City": "Hamburg",
    "Iata": "XFW",
    "Airport": "Hamburg Finkenwerder",
    "Lat": 53.535886,
    "Lon": 9.837025
  },
  {
    "Country": "Germany",
    "City": "Kiel",
    "Iata": "KEL",
    "Airport": "Kiel Holtenau",
    "Lat": 54.3795,
    "Lon": 10.145167
  },
  {
    "Country": "Germany",
    "City": "Luebeck",
    "Iata": "LBC",
    "Airport": "Lubeck Blankensee",
    "Lat": 53.805367,
    "Lon": 10.719222
  },
  {
    "Country": "Germany",
    "City": "Dahlemer Binz",
    "Iata": "",
    "Airport": "Dahlemer Binz",
    "Lat": 50.405888,
    "Lon": 6.528083
  },
  {
    "Country": "Germany",
    "City": "Meinerzhagen",
    "Iata": "",
    "Airport": "Meinerzhagen",
    "Lat": 51.099445,
    "Lon": 7.601944
  },
  {
    "Country": "Germany",
    "City": "Arnsberg",
    "Iata": "ZCA",
    "Airport": "Arnsberg Menden",
    "Lat": 51.483333,
    "Lon": 7.899333
  },
  {
    "Country": "Germany",
    "City": "Essen",
    "Iata": "ESS",
    "Airport": "Essen Mulheim",
    "Lat": 51.402333,
    "Lon": 6.937333
  },
  {
    "Country": "Germany",
    "City": "Bielefeld",
    "Iata": "",
    "Airport": "Bielefeld",
    "Lat": 51.964833,
    "Lon": 8.544833
  },
  {
    "Country": "Germany",
    "City": "Moenchengladbach",
    "Iata": "MGL",
    "Airport": "Monchengladbach",
    "Lat": 51.230356,
    "Lon": 6.504494
  },
  {
    "Country": "Germany",
    "City": "Paderborn",
    "Iata": "PAD",
    "Airport": "Paderborn Lippstadt",
    "Lat": 51.614089,
    "Lon": 8.616317
  },
  {
    "Country": "Germany",
    "City": "Stadtlohn",
    "Iata": "",
    "Airport": "Stadtlohn Vreden",
    "Lat": 51.995844,
    "Lon": 6.840667
  },
  {
    "Country": "Germany",
    "City": "Dortmund",
    "Iata": "DTM",
    "Airport": "Dortmund",
    "Lat": 51.518314,
    "Lon": 7.612242
  },
  {
    "Country": "Germany",
    "City": "Augsburg",
    "Iata": "AGB",
    "Airport": "Augsburg",
    "Lat": 48.425158,
    "Lon": 10.931764
  },
  {
    "Country": "Germany",
    "City": "Biberach",
    "Iata": "",
    "Airport": "Biberach An Der Riss",
    "Lat": 48.111,
    "Lon": 9.762833
  },
  {
    "Country": "Germany",
    "City": "Eggenfelden",
    "Iata": "",
    "Airport": "Eggenfelden",
    "Lat": 48.396167,
    "Lon": 12.723667
  },
  {
    "Country": "Germany",
    "City": "Mindelheim",
    "Iata": "",
    "Airport": "Mindelheim Mattsies",
    "Lat": 48.108833,
    "Lon": 10.524333
  },
  {
    "Country": "Germany",
    "City": "Oberpfaffenhofen",
    "Iata": "OBF",
    "Airport": "Oberpfaffenhofen",
    "Lat": 48.081364,
    "Lon": 11.283067
  },
  {
    "Country": "Germany",
    "City": "Straubing",
    "Iata": "",
    "Airport": "Straubing",
    "Lat": 48.90095,
    "Lon": 12.518186
  },
  {
    "Country": "Germany",
    "City": "Vilshofen",
    "Iata": "",
    "Airport": "Vilshofen",
    "Lat": 48.635167,
    "Lon": 13.195667
  },
  {
    "Country": "Germany",
    "City": "Leutkirch",
    "Iata": "",
    "Airport": "Leutkirch Unterzeil",
    "Lat": 47.859117,
    "Lon": 10.014572
  },
  {
    "Country": "Germany",
    "City": "Friedrichshafen",
    "Iata": "FDH",
    "Airport": "Friedrichshafen",
    "Lat": 47.671317,
    "Lon": 9.511486
  },
  {
    "Country": "Germany",
    "City": "Parchim",
    "Iata": "SZW",
    "Airport": "Schwerin Parchim",
    "Lat": 53.426997,
    "Lon": 11.783436
  },
  {
    "Country": "Germany",
    "City": "Stendal",
    "Iata": "ZSN",
    "Airport": "Stendal Borstel",
    "Lat": 52.627778,
    "Lon": 11.818333
  },
  {
    "Country": "Germany",
    "City": "Aalen-heidenheim",
    "Iata": "",
    "Airport": "Aalen Heidenheim Elchingen",
    "Lat": 48.777833,
    "Lon": 10.264667
  },
  {
    "Country": "Germany",
    "City": "Bayreuth",
    "Iata": "BYU",
    "Airport": "Bayreuth",
    "Lat": 49.984428,
    "Lon": 11.638569
  },
  {
    "Country": "Germany",
    "City": "Burg Feuerstein",
    "Iata": "",
    "Airport": "Burg Feuerstein",
    "Lat": 49.793833,
    "Lon": 11.133167
  },
  {
    "Country": "Germany",
    "City": "Hof",
    "Iata": "HOQ",
    "Airport": "Hof Plauen",
    "Lat": 50.288836,
    "Lon": 11.854919
  },
  {
    "Country": "Germany",
    "City": "Hassfurt",
    "Iata": "",
    "Airport": "Hassfurt Schweinfurt",
    "Lat": 50.018,
    "Lon": 10.5295
  },
  {
    "Country": "Germany",
    "City": "Koblenz",
    "Iata": "ZNV",
    "Airport": "Koblenz Winningen",
    "Lat": 50.3255,
    "Lon": 7.528667
  },
  {
    "Country": "Germany",
    "City": "Trier",
    "Iata": "ZQF",
    "Airport": "Trier Fohren",
    "Lat": 49.8635,
    "Lon": 6.788167
  },
  {
    "Country": "Germany",
    "City": "Speyer",
    "Iata": "ZQC",
    "Airport": "Speyer",
    "Lat": 49.302776,
    "Lon": 8.451195
  },
  {
    "Country": "Germany",
    "City": "Zweibruecken",
    "Iata": "",
    "Airport": "Zweibrucken",
    "Lat": 49.209525,
    "Lon": 7.400647
  },
  {
    "Country": "Germany",
    "City": "Donaueschingen",
    "Iata": "ZQL",
    "Airport": "Donaueschingen Villingen",
    "Lat": 47.973331,
    "Lon": 8.522223
  },
  {
    "Country": "Germany",
    "City": "Freiburg",
    "Iata": "",
    "Airport": "Freiburg",
    "Lat": 48.022653,
    "Lon": 7.832583
  },
  {
    "Country": "Germany",
    "City": "Mengen",
    "Iata": "",
    "Airport": "Mengen Hohentengen",
    "Lat": 48.053833,
    "Lon": 9.372833
  },
  {
    "Country": "Germany",
    "City": "Schwaebisch Hall",
    "Iata": "",
    "Airport": "Schwabisch Hall",
    "Lat": 49.118317,
    "Lon": 9.783956
  },
  {
    "Country": "Germany",
    "City": "Soest",
    "Iata": "",
    "Airport": "Finsterwalde Schacksdorf",
    "Lat": 51.6075,
    "Lon": 13.738
  },
  {
    "Country": "Germany",
    "City": "Braunschweig",
    "Iata": "BWE",
    "Airport": "Braunschweig Wolfsburg",
    "Lat": 52.319167,
    "Lon": 10.556111
  },
  {
    "Country": "Germany",
    "City": "Kassel",
    "Iata": "KSF",
    "Airport": "Kassel Calden",
    "Lat": 51.408394,
    "Lon": 9.377631
  },
  {
    "Country": "Germany",
    "City": "Hildesheim",
    "Iata": "",
    "Airport": "Hildesheim",
    "Lat": 52.179833,
    "Lon": 9.945667
  },
  {
    "Country": "Germany",
    "City": "Bremerhaven",
    "Iata": "BRV",
    "Airport": "Bremerhaven",
    "Lat": 53.507081,
    "Lon": 8.572878
  },
  {
    "Country": "Germany",
    "City": "Emden",
    "Iata": "EME",
    "Airport": "Emden",
    "Lat": 53.391186,
    "Lon": 7.227408
  },
  {
    "Country": "Germany",
    "City": "Leer",
    "Iata": "",
    "Airport": "Leer Papenburg",
    "Lat": 53.271592,
    "Lon": 7.442344
  },
  {
    "Country": "Germany",
    "City": "Wilhelmshaven",
    "Iata": "WVN",
    "Airport": "Wilhelmshaven Mariensiel",
    "Lat": 53.504833,
    "Lon": 8.053333
  },
  {
    "Country": "Germany",
    "City": "Borkum",
    "Iata": "BMK",
    "Airport": "Borkum",
    "Lat": 53.5955,
    "Lon": 6.709167
  },
  {
    "Country": "Germany",
    "City": "Norderney",
    "Iata": "NRD",
    "Airport": "Norderney",
    "Lat": 53.706822,
    "Lon": 7.230247
  },
  {
    "Country": "Germany",
    "City": "Flensburg",
    "Iata": "FLF",
    "Airport": "Flensburg Schaferhaus",
    "Lat": 54.771772,
    "Lon": 9.378214
  },
  {
    "Country": "Germany",
    "City": "Rendsburg",
    "Iata": "",
    "Airport": "Rendsburg Schachtholm",
    "Lat": 54.220928,
    "Lon": 9.600803
  },
  {
    "Country": "Germany",
    "City": "Westerland",
    "Iata": "GWT",
    "Airport": "Westerland Sylt",
    "Lat": 54.91325,
    "Lon": 8.340472
  },
  {
    "Country": "Estonia",
    "City": "Armari Air Force Base",
    "Iata": "",
    "Airport": "Amari",
    "Lat": 59.260286,
    "Lon": 24.208467
  },
  {
    "Country": "Estonia",
    "City": "Kardla",
    "Iata": "KDL",
    "Airport": "Kardla",
    "Lat": 58.990756,
    "Lon": 22.830733
  },
  {
    "Country": "Estonia",
    "City": "Kuressaare",
    "Iata": "URE",
    "Airport": "Kuressaare",
    "Lat": 58.229883,
    "Lon": 22.509494
  },
  {
    "Country": "Estonia",
    "City": "Parnu",
    "Iata": "EPU",
    "Airport": "Parnu",
    "Lat": 58.419044,
    "Lon": 24.472819
  },
  {
    "Country": "Estonia",
    "City": "Tallinn-ulemiste International",
    "Iata": "TLL",
    "Airport": "Tallinn",
    "Lat": 59.413317,
    "Lon": 24.832844
  },
  {
    "Country": "Estonia",
    "City": "Tartu",
    "Iata": "TAY",
    "Airport": "Tartu",
    "Lat": 58.307461,
    "Lon": 26.690428
  },
  {
    "Country": "Finland",
    "City": "Enontekio",
    "Iata": "ENF",
    "Airport": "Enontekio",
    "Lat": 68.362586,
    "Lon": 23.424322
  },
  {
    "Country": "Finland",
    "City": "Eura",
    "Iata": "",
    "Airport": "Eura",
    "Lat": 61.116112,
    "Lon": 22.201389
  },
  {
    "Country": "Finland",
    "City": "Halli",
    "Iata": "KEV",
    "Airport": "Halli",
    "Lat": 61.85605,
    "Lon": 24.7866
  },
  {
    "Country": "Finland",
    "City": "Helsinki",
    "Iata": "HEM",
    "Airport": "Helsinki Malmi",
    "Lat": 60.254558,
    "Lon": 25.042828
  },
  {
    "Country": "Finland",
    "City": "Helsinki",
    "Iata": "HEL",
    "Airport": "Helsinki Vantaa",
    "Lat": 60.317222,
    "Lon": 24.963333
  },
  {
    "Country": "Finland",
    "City": "Hameenkyro",
    "Iata": "",
    "Airport": "Hameenkyro",
    "Lat": 61.689656,
    "Lon": 23.073744
  },
  {
    "Country": "Finland",
    "City": "Hanko",
    "Iata": "",
    "Airport": "Hanko",
    "Lat": 59.848864,
    "Lon": 23.083583
  },
  {
    "Country": "Finland",
    "City": "Hyvinkaa",
    "Iata": "HYV",
    "Airport": "Hyvinkaa",
    "Lat": 60.654444,
    "Lon": 24.881111
  },
  {
    "Country": "Finland",
    "City": "Kikala",
    "Iata": "",
    "Airport": "Kiikala",
    "Lat": 60.462502,
    "Lon": 23.6525
  },
  {
    "Country": "Finland",
    "City": "Immola",
    "Iata": "",
    "Airport": "Immola",
    "Lat": 61.249172,
    "Lon": 28.903711
  },
  {
    "Country": "Finland",
    "City": "Kitee",
    "Iata": "",
    "Airport": "Kitee",
    "Lat": 62.166111,
    "Lon": 30.073611
  },
  {
    "Country": "Finland",
    "City": "Ivalo",
    "Iata": "IVL",
    "Airport": "Ivalo",
    "Lat": 68.607269,
    "Lon": 27.405328
  },
  {
    "Country": "Finland",
    "City": "Joensuu",
    "Iata": "JOE",
    "Airport": "Joensuu",
    "Lat": 62.662906,
    "Lon": 29.60755
  },
  {
    "Country": "Finland",
    "City": "Jyvaskyla",
    "Iata": "JYV",
    "Airport": "Jyvaskyla",
    "Lat": 62.399453,
    "Lon": 25.678253
  },
  {
    "Country": "Finland",
    "City": "Kauhava",
    "Iata": "KAU",
    "Airport": "Kauhava",
    "Lat": 63.127078,
    "Lon": 23.051442
  },
  {
    "Country": "Finland",
    "City": "Kemi",
    "Iata": "KEM",
    "Airport": "Kemi Tornio",
    "Lat": 65.781889,
    "Lon": 24.5991
  },
  {
    "Country": "Finland",
    "City": "Kajaani",
    "Iata": "KAJ",
    "Airport": "Kajaani",
    "Lat": 64.285472,
    "Lon": 27.692414
  },
  {
    "Country": "Finland",
    "City": "Kauhajoki",
    "Iata": "",
    "Airport": "Kauhajoki",
    "Lat": 62.462502,
    "Lon": 22.393055
  },
  {
    "Country": "Finland",
    "City": "Kruunupyy",
    "Iata": "KOK",
    "Airport": "Kruunupyy",
    "Lat": 63.721172,
    "Lon": 23.143131
  },
  {
    "Country": "Finland",
    "City": "Kemijarvi",
    "Iata": "",
    "Airport": "Kemijarvi",
    "Lat": 66.712883,
    "Lon": 27.156786
  },
  {
    "Country": "Finland",
    "City": "Kuusamo",
    "Iata": "KAO",
    "Airport": "Kuusamo",
    "Lat": 65.987575,
    "Lon": 29.239381
  },
  {
    "Country": "Finland",
    "City": "Kittila",
    "Iata": "KTT",
    "Airport": "Kittila",
    "Lat": 67.701022,
    "Lon": 24.84685
  },
  {
    "Country": "Finland",
    "City": "Kuopio",
    "Iata": "KUO",
    "Airport": "Kuopio",
    "Lat": 63.00715,
    "Lon": 27.797756
  },
  {
    "Country": "Finland",
    "City": "Vesivehmaa",
    "Iata": "",
    "Airport": "Lahti Vesivehmaa",
    "Lat": 61.144158,
    "Lon": 25.693508
  },
  {
    "Country": "Finland",
    "City": "Lappeenranta",
    "Iata": "LPP",
    "Airport": "Lappeenranta",
    "Lat": 61.044553,
    "Lon": 28.144397
  },
  {
    "Country": "Finland",
    "City": "Mariehamn",
    "Iata": "MHQ",
    "Airport": "Mariehamn",
    "Lat": 60.122203,
    "Lon": 19.898156
  },
  {
    "Country": "Finland",
    "City": "Menkijarvi",
    "Iata": "",
    "Airport": "Menkijarvi",
    "Lat": 62.946667,
    "Lon": 23.518889
  },
  {
    "Country": "Finland",
    "City": "Mikkeli",
    "Iata": "MIK",
    "Airport": "Mikkeli",
    "Lat": 61.6866,
    "Lon": 27.201794
  },
  {
    "Country": "Finland",
    "City": "Nummela",
    "Iata": "",
    "Airport": "Nummela",
    "Lat": 60.333889,
    "Lon": 24.296389
  },
  {
    "Country": "Finland",
    "City": "Oulu",
    "Iata": "OUL",
    "Airport": "Oulu",
    "Lat": 64.930061,
    "Lon": 25.354564
  },
  {
    "Country": "Finland",
    "City": "Piikajarvi",
    "Iata": "",
    "Airport": "Piikajarvi",
    "Lat": 61.245558,
    "Lon": 22.193356
  },
  {
    "Country": "Finland",
    "City": "Pori",
    "Iata": "POR",
    "Airport": "Pori",
    "Lat": 61.461686,
    "Lon": 21.799983
  },
  {
    "Country": "Finland",
    "City": "Pudasjarvi",
    "Iata": "",
    "Airport": "Pudasjarvi",
    "Lat": 65.402222,
    "Lon": 26.946944
  },
  {
    "Country": "Finland",
    "City": "Pyhasalmi",
    "Iata": "",
    "Airport": "Pyhasalmi",
    "Lat": 63.731917,
    "Lon": 25.926306
  },
  {
    "Country": "Finland",
    "City": "Pattijoki",
    "Iata": "",
    "Airport": "Raahe Pattijoki",
    "Lat": 64.688056,
    "Lon": 24.695833
  },
  {
    "Country": "Finland",
    "City": "Rantasalmi",
    "Iata": "",
    "Airport": "Rantasalmi",
    "Lat": 62.065481,
    "Lon": 28.356494
  },
  {
    "Country": "Finland",
    "City": "Rovaniemi",
    "Iata": "RVN",
    "Airport": "Rovaniemi",
    "Lat": 66.564822,
    "Lon": 25.830411
  },
  {
    "Country": "Finland",
    "City": "Rayskala",
    "Iata": "",
    "Airport": "Rayskala",
    "Lat": 60.744722,
    "Lon": 24.107778
  },
  {
    "Country": "Finland",
    "City": "Savonlinna",
    "Iata": "SVL",
    "Airport": "Savonlinna",
    "Lat": 61.943064,
    "Lon": 28.945136
  },
  {
    "Country": "Finland",
    "City": "Selanpaa",
    "Iata": "",
    "Airport": "Selanpaa",
    "Lat": 61.062389,
    "Lon": 26.798861
  },
  {
    "Country": "Finland",
    "City": "Sodankyla",
    "Iata": "SOT",
    "Airport": "Sodankyla",
    "Lat": 67.395033,
    "Lon": 26.619133
  },
  {
    "Country": "Finland",
    "City": "Tampere",
    "Iata": "TMP",
    "Airport": "Tampere Pirkkala",
    "Lat": 61.414147,
    "Lon": 23.604392
  },
  {
    "Country": "Finland",
    "City": "Teisko",
    "Iata": "",
    "Airport": "Teisko",
    "Lat": 61.77335,
    "Lon": 24.027006
  },
  {
    "Country": "Finland",
    "City": "Turku",
    "Iata": "TKU",
    "Airport": "Turku",
    "Lat": 60.514142,
    "Lon": 22.262808
  },
  {
    "Country": "Finland",
    "City": "Utti",
    "Iata": "QVY",
    "Airport": "Utti",
    "Lat": 60.896394,
    "Lon": 26.938353
  },
  {
    "Country": "Finland",
    "City": "Vaasa",
    "Iata": "VAA",
    "Airport": "Vaasa",
    "Lat": 63.05065,
    "Lon": 21.762175
  },
  {
    "Country": "Finland",
    "City": "Varkaus",
    "Iata": "VRK",
    "Airport": "Varkaus",
    "Lat": 62.171111,
    "Lon": 27.868611
  },
  {
    "Country": "Finland",
    "City": "Ylivieska-raudaskyla",
    "Iata": "",
    "Airport": "Ylivieska",
    "Lat": 64.060547,
    "Lon": 24.715953
  },
  {
    "Country": "United Kingdom",
    "City": "Belfast",
    "Iata": "BFS",
    "Airport": "Belfast Intl",
    "Lat": 54.6575,
    "Lon": -6.215833
  },
  {
    "Country": "United Kingdom",
    "City": "Enniskillen",
    "Iata": "ENK",
    "Airport": "St Angelo",
    "Lat": 54.398889,
    "Lon": -7.651667
  },
  {
    "Country": "United Kingdom",
    "City": "Belfast",
    "Iata": "BHD",
    "Airport": "Belfast City",
    "Lat": 54.618056,
    "Lon": -5.8725
  },
  {
    "Country": "United Kingdom",
    "City": "Londonderry",
    "Iata": "LDY",
    "Airport": "City of Derry",
    "Lat": 55.042778,
    "Lon": -7.161111
  },
  {
    "Country": "United Kingdom",
    "City": "Birmingham",
    "Iata": "BHX",
    "Airport": "Birmingham",
    "Lat": 52.453856,
    "Lon": -1.748028
  },
  {
    "Country": "United Kingdom",
    "City": "Coventry",
    "Iata": "CVT",
    "Airport": "Coventry",
    "Lat": 52.369722,
    "Lon": -1.479722
  },
  {
    "Country": "United Kingdom",
    "City": "Leicester",
    "Iata": "",
    "Airport": "Leicester",
    "Lat": 52.607778,
    "Lon": -1.031944
  },
  {
    "Country": "United Kingdom",
    "City": "Golouchestershire",
    "Iata": "GLO",
    "Airport": "Gloucestershire",
    "Lat": 51.894167,
    "Lon": -2.167222
  },
  {
    "Country": "United Kingdom",
    "City": "Halfpenny Green",
    "Iata": "",
    "Airport": "Wolverhampton",
    "Lat": 52.5175,
    "Lon": -2.259444
  },
  {
    "Country": "United Kingdom",
    "City": "Pailton",
    "Iata": "",
    "Airport": "Kemble",
    "Lat": 51.668056,
    "Lon": -2.056944
  },
  {
    "Country": "United Kingdom",
    "City": "Turweston",
    "Iata": "",
    "Airport": "Turweston",
    "Lat": 52.040833,
    "Lon": -1.095556
  },
  {
    "Country": "United Kingdom",
    "City": "Wellesbourne",
    "Iata": "",
    "Airport": "Wellesbourne Mountford",
    "Lat": 52.192222,
    "Lon": -1.614444
  },
  {
    "Country": "United Kingdom",
    "City": "Manchester",
    "Iata": "MAN",
    "Airport": "Manchester",
    "Lat": 53.353744,
    "Lon": -2.27495
  },
  {
    "Country": "United Kingdom",
    "City": "Woodfort",
    "Iata": "",
    "Airport": "Manchester Woodford",
    "Lat": 53.338056,
    "Lon": -2.148889
  },
  {
    "Country": "United Kingdom",
    "City": "Chivenor",
    "Iata": "",
    "Airport": "Chivenor",
    "Lat": 51.087167,
    "Lon": -4.150339
  },
  {
    "Country": "United Kingdom",
    "City": "Newquai",
    "Iata": "NQY",
    "Airport": "St Mawgan",
    "Lat": 50.440558,
    "Lon": -4.995408
  },
  {
    "Country": "United Kingdom",
    "City": "Lyneham",
    "Iata": "LYE",
    "Airport": "Lyneham",
    "Lat": 51.505144,
    "Lon": -1.993428
  },
  {
    "Country": "United Kingdom",
    "City": "Boscombe Down",
    "Iata": "",
    "Airport": "Boscombe Down",
    "Lat": 51.152189,
    "Lon": -1.747414
  },
  {
    "Country": "United Kingdom",
    "City": "Culdrose",
    "Iata": "",
    "Airport": "Culdrose",
    "Lat": 50.086092,
    "Lon": -5.255711
  },
  {
    "Country": "United Kingdom",
    "City": "St. Athan",
    "Iata": "",
    "Airport": "St Athan",
    "Lat": 51.404811,
    "Lon": -3.43575
  },
  {
    "Country": "United Kingdom",
    "City": "Yeovilton",
    "Iata": "YEO",
    "Airport": "Yeovilton",
    "Lat": 51.009358,
    "Lon": -2.638819
  },
  {
    "Country": "United Kingdom",
    "City": "Haverfordwest",
    "Iata": "",
    "Airport": "Haverfordwest",
    "Lat": 51.833056,
    "Lon": -4.961111
  },
  {
    "Country": "United Kingdom",
    "City": "Cardiff",
    "Iata": "CWL",
    "Airport": "Cardiff",
    "Lat": 51.396667,
    "Lon": -3.343333
  },
  {
    "Country": "United Kingdom",
    "City": "Swansea",
    "Iata": "SWS",
    "Airport": "Swansea",
    "Lat": 51.605333,
    "Lon": -4.067833
  },
  {
    "Country": "United Kingdom",
    "City": "Bristol",
    "Iata": "BRS",
    "Airport": "Bristol",
    "Lat": 51.382669,
    "Lon": -2.719089
  },
  {
    "Country": "United Kingdom",
    "City": "Liverpool",
    "Iata": "LPL",
    "Airport": "Liverpool",
    "Lat": 53.333611,
    "Lon": -2.849722
  },
  {
    "Country": "United Kingdom",
    "City": "London",
    "Iata": "LTN",
    "Airport": "Luton",
    "Lat": 51.874722,
    "Lon": -0.368333
  },
  {
    "Country": "United Kingdom",
    "City": "Plymouth",
    "Iata": "PLH",
    "Airport": "Plymouth",
    "Lat": 50.422778,
    "Lon": -4.105833
  },
  {
    "Country": "United Kingdom",
    "City": "Bournemouth",
    "Iata": "BOH",
    "Airport": "Bournemouth",
    "Lat": 50.78,
    "Lon": -1.8425
  },
  {
    "Country": "United Kingdom",
    "City": "Southampton",
    "Iata": "SOU",
    "Airport": "Southampton",
    "Lat": 50.950261,
    "Lon": -1.356803
  },
  {
    "Country": "United Kingdom",
    "City": "Lasham",
    "Iata": "QLA",
    "Airport": "Lasham",
    "Lat": 51.187167,
    "Lon": -1.0335
  },
  {
    "Country": "Guernsey",
    "City": "Alderney",
    "Iata": "ACI",
    "Airport": "Alderney",
    "Lat": 49.706111,
    "Lon": -2.214722
  },
  {
    "Country": "Guernsey",
    "City": "Guernsey",
    "Iata": "GCI",
    "Airport": "Guernsey",
    "Lat": 49.434956,
    "Lon": -2.601969
  },
  {
    "Country": "Jersey",
    "City": "Jersey",
    "Iata": "JER",
    "Airport": "Jersey",
    "Lat": 49.207947,
    "Lon": -2.195508
  },
  {
    "Country": "United Kingdom",
    "City": "Shoreham By Sea",
    "Iata": "ESH",
    "Airport": "Shoreham",
    "Lat": 50.835556,
    "Lon": -0.297222
  },
  {
    "Country": "United Kingdom",
    "City": "Biggin Hill",
    "Iata": "BQH",
    "Airport": "Biggin Hill",
    "Lat": 51.330833,
    "Lon": 0.0325
  },
  {
    "Country": "United Kingdom",
    "City": "London",
    "Iata": "LGW",
    "Airport": "Gatwick",
    "Lat": 51.148056,
    "Lon": -0.190278
  },
  {
    "Country": "United Kingdom",
    "City": "London",
    "Iata": "LCY",
    "Airport": "City",
    "Lat": 51.505278,
    "Lon": 0.055278
  },
  {
    "Country": "United Kingdom",
    "City": "Farnborough",
    "Iata": "FAB",
    "Airport": "Farnborough",
    "Lat": 51.275833,
    "Lon": -0.776333
  },
  {
    "Country": "United Kingdom",
    "City": "Chalsgrove",
    "Iata": "",
    "Airport": "Chalgrove",
    "Lat": 51.676111,
    "Lon": -1.080833
  },
  {
    "Country": "United Kingdom",
    "City": "Blackbushe",
    "Iata": "BBS",
    "Airport": "Blackbushe",
    "Lat": 51.323889,
    "Lon": -0.8475
  },
  {
    "Country": "United Kingdom",
    "City": "London",
    "Iata": "LHR",
    "Airport": "Heathrow",
    "Lat": 51.4775,
    "Lon": -0.461389
  },
  {
    "Country": "United Kingdom",
    "City": "Southend",
    "Iata": "SEN",
    "Airport": "Southend",
    "Lat": 51.571389,
    "Lon": 0.695556
  },
  {
    "Country": "United Kingdom",
    "City": "Lydd",
    "Iata": "LYX",
    "Airport": "Lydd",
    "Lat": 50.956111,
    "Lon": 0.939167
  },
  {
    "Country": "United Kingdom",
    "City": "Manston",
    "Iata": "MSE",
    "Airport": "Manston",
    "Lat": 51.342222,
    "Lon": 1.346111
  },
  {
    "Country": "United Kingdom",
    "City": "Brough",
    "Iata": "",
    "Airport": "Brough",
    "Lat": 53.719667,
    "Lon": -0.566333
  },
  {
    "Country": "United Kingdom",
    "City": "Carlisle",
    "Iata": "CAX",
    "Airport": "Carlisle",
    "Lat": 54.9375,
    "Lon": -2.809167
  },
  {
    "Country": "United Kingdom",
    "City": "Repton",
    "Iata": "",
    "Airport": "Gamston",
    "Lat": 53.280556,
    "Lon": -0.951389
  },
  {
    "Country": "United Kingdom",
    "City": "Blackpool",
    "Iata": "BLK",
    "Airport": "Blackpool",
    "Lat": 53.771667,
    "Lon": -3.028611
  },
  {
    "Country": "United Kingdom",
    "City": "Humberside",
    "Iata": "HUY",
    "Airport": "Humberside",
    "Lat": 53.574444,
    "Lon": -0.350833
  },
  {
    "Country": "United Kingdom",
    "City": "Barrow Island",
    "Iata": "BWF",
    "Airport": "Walney Island",
    "Lat": 54.131167,
    "Lon": -3.263667
  },
  {
    "Country": "United Kingdom",
    "City": "Leeds",
    "Iata": "LBA",
    "Airport": "Leeds Bradford",
    "Lat": 53.865897,
    "Lon": -1.660569
  },
  {
    "Country": "United Kingdom",
    "City": "Warton",
    "Iata": "",
    "Airport": "Warton",
    "Lat": 53.745097,
    "Lon": -2.883061
  },
  {
    "Country": "United Kingdom",
    "City": "Hawarden",
    "Iata": "CEG",
    "Airport": "Hawarden",
    "Lat": 53.178056,
    "Lon": -2.977778
  },
  {
    "Country": "Isle of Man",
    "City": "Isle Of Man",
    "Iata": "IOM",
    "Airport": "Isle Of Man",
    "Lat": 54.083333,
    "Lon": -4.623889
  },
  {
    "Country": "United Kingdom",
    "City": "Newcastle",
    "Iata": "NCL",
    "Airport": "Newcastle",
    "Lat": 55.0375,
    "Lon": -1.691667
  },
  {
    "Country": "United Kingdom",
    "City": "Teesside",
    "Iata": "MME",
    "Airport": "Durham Tees Valley Airport",
    "Lat": 54.509189,
    "Lon": -1.429406
  },
  {
    "Country": "United Kingdom",
    "City": "East Midlands",
    "Iata": "EMA",
    "Airport": "Nottingham East Midlands",
    "Lat": 52.831111,
    "Lon": -1.328056
  },
  {
    "Country": "United Kingdom",
    "City": "Llanbedr",
    "Iata": "",
    "Airport": "Llanbedr",
    "Lat": 52.811744,
    "Lon": -4.123575
  },
  {
    "Country": "United Kingdom",
    "City": "Ternhill",
    "Iata": "",
    "Airport": "Ternhill",
    "Lat": 52.871164,
    "Lon": -2.533561
  },
  {
    "Country": "United Kingdom",
    "City": "Shawbury",
    "Iata": "",
    "Airport": "Shawbury",
    "Lat": 52.798169,
    "Lon": -2.668042
  },
  {
    "Country": "United Kingdom",
    "City": "Woodvale",
    "Iata": "",
    "Airport": "Woodvale",
    "Lat": 53.581575,
    "Lon": -3.055522
  },
  {
    "Country": "United Kingdom",
    "City": "Kirkwall",
    "Iata": "KOI",
    "Airport": "Kirkwall",
    "Lat": 58.957778,
    "Lon": -2.905
  },
  {
    "Country": "United Kingdom",
    "City": "Sumburgh",
    "Iata": "LSI",
    "Airport": "Sumburgh",
    "Lat": 59.878889,
    "Lon": -1.295556
  },
  {
    "Country": "United Kingdom",
    "City": "Wick",
    "Iata": "WIC",
    "Airport": "Wick",
    "Lat": 58.458889,
    "Lon": -3.093056
  },
  {
    "Country": "United Kingdom",
    "City": "Aberdeen",
    "Iata": "ABZ",
    "Airport": "Dyce",
    "Lat": 57.201944,
    "Lon": -2.197778
  },
  {
    "Country": "United Kingdom",
    "City": "Inverness",
    "Iata": "INV",
    "Airport": "Inverness",
    "Lat": 57.5425,
    "Lon": -4.0475
  },
  {
    "Country": "United Kingdom",
    "City": "Glasgow",
    "Iata": "GLA",
    "Airport": "Glasgow",
    "Lat": 55.871944,
    "Lon": -4.433056
  },
  {
    "Country": "United Kingdom",
    "City": "Edinburgh",
    "Iata": "EDI",
    "Airport": "Edinburgh",
    "Lat": 55.95,
    "Lon": -3.3725
  },
  {
    "Country": "United Kingdom",
    "City": "Islay",
    "Iata": "ILY",
    "Airport": "Islay",
    "Lat": 55.681944,
    "Lon": -6.256667
  },
  {
    "Country": "United Kingdom",
    "City": "Prestwick",
    "Iata": "PIK",
    "Airport": "Prestwick",
    "Lat": 55.509444,
    "Lon": -4.586667
  },
  {
    "Country": "United Kingdom",
    "City": "Benbecula",
    "Iata": "BEB",
    "Airport": "Benbecula",
    "Lat": 57.481111,
    "Lon": -7.362778
  },
  {
    "Country": "United Kingdom",
    "City": "Scatsta",
    "Iata": "SDZ",
    "Airport": "Scatsta",
    "Lat": 60.432778,
    "Lon": -1.296111
  },
  {
    "Country": "United Kingdom",
    "City": "Dundee",
    "Iata": "DND",
    "Airport": "Dundee",
    "Lat": 56.452499,
    "Lon": -3.025833
  },
  {
    "Country": "United Kingdom",
    "City": "Stornoway",
    "Iata": "SYY",
    "Airport": "Stornoway",
    "Lat": 58.215556,
    "Lon": -6.331111
  },
  {
    "Country": "United Kingdom",
    "City": "Tiree",
    "Iata": "TRE",
    "Airport": "Tiree",
    "Lat": 56.499167,
    "Lon": -6.869167
  },
  {
    "Country": "United Kingdom",
    "City": "Leuchars",
    "Iata": "ADX",
    "Airport": "Leuchars",
    "Lat": 56.372889,
    "Lon": -2.868444
  },
  {
    "Country": "United Kingdom",
    "City": "Lossiemouth",
    "Iata": "LMO",
    "Airport": "Lossiemouth",
    "Lat": 57.705214,
    "Lon": -3.339169
  },
  {
    "Country": "United Kingdom",
    "City": "Cambridge",
    "Iata": "CBG",
    "Airport": "Cambridge",
    "Lat": 52.205,
    "Lon": 0.175
  },
  {
    "Country": "United Kingdom",
    "City": "Peterborough",
    "Iata": "",
    "Airport": "Conington",
    "Lat": 52.468056,
    "Lon": -0.251111
  },
  {
    "Country": "United Kingdom",
    "City": "Norwich",
    "Iata": "NWI",
    "Airport": "Norwich",
    "Lat": 52.675833,
    "Lon": 1.282778
  },
  {
    "Country": "United Kingdom",
    "City": "London",
    "Iata": "STN",
    "Airport": "Stansted",
    "Lat": 51.885,
    "Lon": 0.235
  },
  {
    "Country": "United Kingdom",
    "City": "North Weald",
    "Iata": "",
    "Airport": "North Weald",
    "Lat": 51.721667,
    "Lon": 0.154167
  },
  {
    "Country": "United Kingdom",
    "City": "Fowlmere",
    "Iata": "",
    "Airport": "Sheffield City",
    "Lat": 53.394256,
    "Lon": -1.388486
  },
  {
    "Country": "United Kingdom",
    "City": "Cranfield",
    "Iata": "",
    "Airport": "Cranfield",
    "Lat": 52.072222,
    "Lon": -0.616667
  },
  {
    "Country": "United Kingdom",
    "City": "Exeter",
    "Iata": "EXT",
    "Airport": "Exeter",
    "Lat": 50.734444,
    "Lon": -3.413889
  },
  {
    "Country": "United Kingdom",
    "City": "Bristol",
    "Iata": "FZO",
    "Airport": "Bristol Filton",
    "Lat": 51.519444,
    "Lon": -2.590833
  },
  {
    "Country": "United Kingdom",
    "City": "Oxford",
    "Iata": "OXF",
    "Airport": "Kidlington",
    "Lat": 51.836944,
    "Lon": -1.32
  },
  {
    "Country": "United Kingdom",
    "City": "Benson",
    "Iata": "",
    "Airport": "Benson",
    "Lat": 51.616389,
    "Lon": -1.095833
  },
  {
    "Country": "United Kingdom",
    "City": "Lakenheath",
    "Iata": "",
    "Airport": "Lakenheath",
    "Lat": 52.409333,
    "Lon": 0.561
  },
  {
    "Country": "United Kingdom",
    "City": "Mildenhall",
    "Iata": "MHZ",
    "Airport": "Mildenhall",
    "Lat": 52.361933,
    "Lon": 0.486406
  },
  {
    "Country": "United Kingdom",
    "City": "Wattisham",
    "Iata": "",
    "Airport": "Wattisham",
    "Lat": 52.127283,
    "Lon": 0.956264
  },
  {
    "Country": "United Kingdom",
    "City": "Wyton",
    "Iata": "",
    "Airport": "Wyton",
    "Lat": 52.357167,
    "Lon": -0.107833
  },
  {
    "Country": "United Kingdom",
    "City": "Fairford",
    "Iata": "FFD",
    "Airport": "Fairford",
    "Lat": 51.682167,
    "Lon": -1.790028
  },
  {
    "Country": "United Kingdom",
    "City": "Brize Norton",
    "Iata": "BZZ",
    "Airport": "Brize Norton",
    "Lat": 51.749964,
    "Lon": -1.583617
  },
  {
    "Country": "United Kingdom",
    "City": "Odiham",
    "Iata": "ODH",
    "Airport": "Odiham",
    "Lat": 51.234139,
    "Lon": -0.942825
  },
  {
    "Country": "United Kingdom",
    "City": "Cosford",
    "Iata": "",
    "Airport": "Cosford",
    "Lat": 52.640028,
    "Lon": -2.305578
  },
  {
    "Country": "United Kingdom",
    "City": "Northolt",
    "Iata": "NHT",
    "Airport": "Northolt",
    "Lat": 51.553,
    "Lon": -0.418167
  },
  {
    "Country": "United Kingdom",
    "City": "Coningsby",
    "Iata": "QCY",
    "Airport": "Coningsby",
    "Lat": 53.093014,
    "Lon": -0.166014
  },
  {
    "Country": "United Kingdom",
    "City": "Dishforth",
    "Iata": "",
    "Airport": "Dishforth",
    "Lat": 54.137186,
    "Lon": -1.420253
  },
  {
    "Country": "United Kingdom",
    "City": "Leeming",
    "Iata": "",
    "Airport": "Leeming",
    "Lat": 54.292383,
    "Lon": -1.5354
  },
  {
    "Country": "United Kingdom",
    "City": "Church Fenton",
    "Iata": "",
    "Airport": "Church Fenton",
    "Lat": 53.834333,
    "Lon": -1.1955
  },
  {
    "Country": "United Kingdom",
    "City": "Honington",
    "Iata": "BEQ",
    "Airport": "Honington",
    "Lat": 52.342611,
    "Lon": 0.772939
  },
  {
    "Country": "United Kingdom",
    "City": "Cottesmore",
    "Iata": "",
    "Airport": "Cottesmore",
    "Lat": 52.735711,
    "Lon": -0.648769
  },
  {
    "Country": "United Kingdom",
    "City": "Scampton",
    "Iata": "",
    "Airport": "Scampton",
    "Lat": 53.307778,
    "Lon": -0.550833
  },
  {
    "Country": "United Kingdom",
    "City": "Wittering",
    "Iata": "",
    "Airport": "Wittering",
    "Lat": 52.612558,
    "Lon": -0.476453
  },
  {
    "Country": "United Kingdom",
    "City": "Linton-on-ouse",
    "Iata": "",
    "Airport": "Linton On Ouse",
    "Lat": 54.048911,
    "Lon": -1.252747
  },
  {
    "Country": "United Kingdom",
    "City": "Waddington",
    "Iata": "WTN",
    "Airport": "Waddington",
    "Lat": 53.166167,
    "Lon": -0.523811
  },
  {
    "Country": "United Kingdom",
    "City": "Topcliffe",
    "Iata": "",
    "Airport": "Topcliffe",
    "Lat": 54.205522,
    "Lon": -1.382094
  },
  {
    "Country": "United Kingdom",
    "City": "Cranwell",
    "Iata": "",
    "Airport": "Cranwell",
    "Lat": 53.03035,
    "Lon": -0.483242
  },
  {
    "Country": "United Kingdom",
    "City": "Barkston Heath",
    "Iata": "",
    "Airport": "Barkston Heath",
    "Lat": 52.962225,
    "Lon": -0.561625
  },
  {
    "Country": "United Kingdom",
    "City": "Marham",
    "Iata": "KNF",
    "Airport": "Marham",
    "Lat": 52.648353,
    "Lon": 0.550692
  },
  {
    "Country": "Falkland Islands",
    "City": "Mount Pleasant",
    "Iata": "MPN",
    "Airport": "Mount Pleasant",
    "Lat": -51.822777,
    "Lon": -58.447222
  },
  {
    "Country": "Netherlands",
    "City": "Amsterdam",
    "Iata": "AMS",
    "Airport": "Schiphol",
    "Lat": 52.308613,
    "Lon": 4.763889
  },
  {
    "Country": "Netherlands",
    "City": "Weert",
    "Iata": "",
    "Airport": "Budel",
    "Lat": 51.25528,
    "Lon": 5.601389
  },
  {
    "Country": "Netherlands",
    "City": "Maastricht",
    "Iata": "MST",
    "Airport": "Maastricht",
    "Lat": 50.911658,
    "Lon": 5.770144
  },
  {
    "Country": "Netherlands",
    "City": "Deelen",
    "Iata": "",
    "Airport": "Deelen",
    "Lat": 52.060556,
    "Lon": 5.873056
  },
  {
    "Country": "Netherlands",
    "City": "Drachten",
    "Iata": "",
    "Airport": "Drachten",
    "Lat": 53.119167,
    "Lon": 6.129722
  },
  {
    "Country": "Netherlands",
    "City": "Eindhoven",
    "Iata": "EIN",
    "Airport": "Eindhoven",
    "Lat": 51.450139,
    "Lon": 5.374528
  },
  {
    "Country": "Netherlands",
    "City": "Groningen",
    "Iata": "GRQ",
    "Airport": "Eelde",
    "Lat": 53.11972,
    "Lon": 6.579444
  },
  {
    "Country": "Netherlands",
    "City": "Gilze-rijen",
    "Iata": "",
    "Airport": "Gilze Rijen",
    "Lat": 51.567389,
    "Lon": 4.931833
  },
  {
    "Country": "Netherlands",
    "City": "De Kooy",
    "Iata": "DHR",
    "Airport": "De Kooy",
    "Lat": 52.923353,
    "Lon": 4.780625
  },
  {
    "Country": "Netherlands",
    "City": "Lelystad",
    "Iata": "",
    "Airport": "Lelystad",
    "Lat": 52.460278,
    "Lon": 5.527222
  },
  {
    "Country": "Netherlands",
    "City": "Leeuwarden",
    "Iata": "LWR",
    "Airport": "Leeuwarden",
    "Lat": 53.228611,
    "Lon": 5.760556
  },
  {
    "Country": "Netherlands",
    "City": "Rotterdam",
    "Iata": "RTM",
    "Airport": "Rotterdam",
    "Lat": 51.956944,
    "Lon": 4.437222
  },
  {
    "Country": "Netherlands",
    "City": "Soesterberg",
    "Iata": "UTC",
    "Airport": "Soesterberg",
    "Lat": 52.1273,
    "Lon": 5.27619
  },
  {
    "Country": "Netherlands",
    "City": "Enschede",
    "Iata": "ENS",
    "Airport": "Twenthe",
    "Lat": 52.27,
    "Lon": 6.874167
  },
  {
    "Country": "Netherlands",
    "City": "Valkenburg",
    "Iata": "LID",
    "Airport": "Valkenburg",
    "Lat": 52.166139,
    "Lon": 4.417944
  },
  {
    "Country": "Netherlands",
    "City": "Woensdrecht",
    "Iata": "WOE",
    "Airport": "Woensdrecht",
    "Lat": 51.449092,
    "Lon": 4.342031
  },
  {
    "Country": "Ireland",
    "City": "Cork",
    "Iata": "ORK",
    "Airport": "Cork",
    "Lat": 51.841269,
    "Lon": -8.491111
  },
  {
    "Country": "Ireland",
    "City": "Galway",
    "Iata": "GWY",
    "Airport": "Galway",
    "Lat": 53.300175,
    "Lon": -8.941592
  },
  {
    "Country": "Ireland",
    "City": "Dublin",
    "Iata": "DUB",
    "Airport": "Dublin",
    "Lat": 53.421333,
    "Lon": -6.270075
  },
  {
    "Country": "Ireland",
    "City": "Connaught",
    "Iata": "NOC",
    "Airport": "Ireland West Knock",
    "Lat": 53.910297,
    "Lon": -8.818492
  },
  {
    "Country": "Ireland",
    "City": "Kerry",
    "Iata": "KIR",
    "Airport": "Kerry",
    "Lat": 52.180878,
    "Lon": -9.523783
  },
  {
    "Country": "Ireland",
    "City": "Casement",
    "Iata": "",
    "Airport": "Casement",
    "Lat": 53.301667,
    "Lon": -6.451333
  },
  {
    "Country": "Ireland",
    "City": "Shannon",
    "Iata": "SNN",
    "Airport": "Shannon",
    "Lat": 52.701978,
    "Lon": -8.924817
  },
  {
    "Country": "Ireland",
    "City": "Sligo",
    "Iata": "SXL",
    "Airport": "Sligo",
    "Lat": 54.280214,
    "Lon": -8.599206
  },
  {
    "Country": "Ireland",
    "City": "Waterford",
    "Iata": "WAT",
    "Airport": "Waterford",
    "Lat": 52.1872,
    "Lon": -7.086964
  },
  {
    "Country": "Denmark",
    "City": "Aarhus",
    "Iata": "AAR",
    "Airport": "Aarhus",
    "Lat": 56.300017,
    "Lon": 10.619008
  },
  {
    "Country": "Denmark",
    "City": "Billund",
    "Iata": "BLL",
    "Airport": "Billund",
    "Lat": 55.740322,
    "Lon": 9.151778
  },
  {
    "Country": "Denmark",
    "City": "Copenhagen",
    "Iata": "CPH",
    "Airport": "Kastrup",
    "Lat": 55.617917,
    "Lon": 12.655972
  },
  {
    "Country": "Denmark",
    "City": "Esbjerg",
    "Iata": "EBJ",
    "Airport": "Esbjerg",
    "Lat": 55.525942,
    "Lon": 8.553403
  },
  {
    "Country": "Denmark",
    "City": "Gronholt",
    "Iata": "",
    "Airport": "Gronholt Hillerod",
    "Lat": 55.941387,
    "Lon": 12.382222
  },
  {
    "Country": "Denmark",
    "City": "Karup",
    "Iata": "KRP",
    "Airport": "Karup",
    "Lat": 56.297458,
    "Lon": 9.124628
  },
  {
    "Country": "Denmark",
    "City": "Laeso",
    "Iata": "",
    "Airport": "Laeso",
    "Lat": 57.277228,
    "Lon": 11.000083
  },
  {
    "Country": "Denmark",
    "City": "Maribo",
    "Iata": "",
    "Airport": "Lolland Falster Maribo",
    "Lat": 54.699344,
    "Lon": 11.440117
  },
  {
    "Country": "Denmark",
    "City": "Odense",
    "Iata": "ODE",
    "Airport": "Odense",
    "Lat": 55.476664,
    "Lon": 10.330933
  },
  {
    "Country": "Denmark",
    "City": "Krusa-padborg",
    "Iata": "",
    "Airport": "Krusa Padborg",
    "Lat": 54.870306,
    "Lon": 9.279014
  },
  {
    "Country": "Denmark",
    "City": "Copenhagen",
    "Iata": "RKE",
    "Airport": "Roskilde",
    "Lat": 55.585567,
    "Lon": 12.131428
  },
  {
    "Country": "Denmark",
    "City": "Ronne",
    "Iata": "RNN",
    "Airport": "Bornholm Ronne",
    "Lat": 55.063267,
    "Lon": 14.759558
  },
  {
    "Country": "Denmark",
    "City": "Soenderborg",
    "Iata": "SGD",
    "Airport": "Sonderborg",
    "Lat": 54.964367,
    "Lon": 9.791731
  },
  {
    "Country": "Denmark",
    "City": "Skrydstrup",
    "Iata": "SKS",
    "Airport": "Skrydstrup",
    "Lat": 55.225553,
    "Lon": 9.263931
  },
  {
    "Country": "Denmark",
    "City": "Skive",
    "Iata": "",
    "Airport": "Skive",
    "Lat": 56.550208,
    "Lon": 9.172983
  },
  {
    "Country": "Denmark",
    "City": "Thisted",
    "Iata": "TED",
    "Airport": "Thisted",
    "Lat": 57.0688,
    "Lon": 8.705225
  },
  {
    "Country": "Denmark",
    "City": "Kolding",
    "Iata": "",
    "Airport": "Kolding Vamdrup",
    "Lat": 55.436283,
    "Lon": 9.330925
  },
  {
    "Country": "Faroe Islands",
    "City": "Vagar",
    "Iata": "FAE",
    "Airport": "Vagar",
    "Lat": 62.063628,
    "Lon": -7.277219
  },
  {
    "Country": "Denmark",
    "City": "Vesthimmerland",
    "Iata": "",
    "Airport": "Aars",
    "Lat": 56.846944,
    "Lon": 9.458611
  },
  {
    "Country": "Denmark",
    "City": "Stauning",
    "Iata": "STA",
    "Airport": "Stauning",
    "Lat": 55.990122,
    "Lon": 8.353906
  },
  {
    "Country": "Denmark",
    "City": "Aalborg",
    "Iata": "AAL",
    "Airport": "Aalborg",
    "Lat": 57.092789,
    "Lon": 9.849164
  },
  {
    "Country": "Luxembourg",
    "City": "Luxemburg",
    "Iata": "LUX",
    "Airport": "Luxembourg",
    "Lat": 49.626575,
    "Lon": 6.211517
  },
  {
    "Country": "Norway",
    "City": "Alesund",
    "Iata": "AES",
    "Airport": "Vigra",
    "Lat": 62.560372,
    "Lon": 6.110164
  },
  {
    "Country": "Norway",
    "City": "Andoya",
    "Iata": "ANX",
    "Airport": "Andenes",
    "Lat": 69.2925,
    "Lon": 16.144167
  },
  {
    "Country": "Norway",
    "City": "Alta",
    "Iata": "ALF",
    "Airport": "Alta",
    "Lat": 69.976111,
    "Lon": 23.371667
  },
  {
    "Country": "Norway",
    "City": "Voss",
    "Iata": "",
    "Airport": "Bomoen",
    "Lat": 60.63885,
    "Lon": 6.501497
  },
  {
    "Country": "Norway",
    "City": "Bronnoysund",
    "Iata": "BNN",
    "Airport": "Bronnoy",
    "Lat": 65.461111,
    "Lon": 12.2175
  },
  {
    "Country": "Norway",
    "City": "Bodo",
    "Iata": "BOO",
    "Airport": "Bodo",
    "Lat": 67.269167,
    "Lon": 14.365278
  },
  {
    "Country": "Norway",
    "City": "Bergen",
    "Iata": "BGO",
    "Airport": "Flesland",
    "Lat": 60.293386,
    "Lon": 5.218142
  },
  {
    "Country": "Norway",
    "City": "Batsfjord",
    "Iata": "BJF",
    "Airport": "Batsfjord",
    "Lat": 70.600278,
    "Lon": 29.6925
  },
  {
    "Country": "Norway",
    "City": "Kristiansand",
    "Iata": "KRS",
    "Airport": "Kjevik",
    "Lat": 58.204214,
    "Lon": 8.085369
  },
  {
    "Country": "Norway",
    "City": "Geilo",
    "Iata": "",
    "Airport": "Dagali",
    "Lat": 60.416667,
    "Lon": 8.512778
  },
  {
    "Country": "Norway",
    "City": "Bardufoss",
    "Iata": "BDU",
    "Airport": "Bardufoss",
    "Lat": 69.055758,
    "Lon": 18.540356
  },
  {
    "Country": "Norway",
    "City": "Harstad/Narvik",
    "Iata": "EVE",
    "Airport": "Evenes",
    "Lat": 68.4913,
    "Lon": 16.678108
  },
  {
    "Country": "Norway",
    "City": "Fagernes",
    "Iata": "VDB",
    "Airport": "Leirin",
    "Lat": 61.015556,
    "Lon": 9.288056
  },
  {
    "Country": "Norway",
    "City": "Floro",
    "Iata": "FRO",
    "Airport": "Floro",
    "Lat": 61.583611,
    "Lon": 5.024722
  },
  {
    "Country": "Norway",
    "City": "Oslo",
    "Iata": "OSL",
    "Airport": "Gardermoen",
    "Lat": 60.193917,
    "Lon": 11.100361
  },
  {
    "Country": "Norway",
    "City": "Haugesund",
    "Iata": "HAU",
    "Airport": "Karmoy",
    "Lat": 59.345267,
    "Lon": 5.208364
  },
  {
    "Country": "Norway",
    "City": "Hasvik",
    "Iata": "HAA",
    "Airport": "Hasvik",
    "Lat": 70.486675,
    "Lon": 22.139744
  },
  {
    "Country": "Norway",
    "City": "Kristiansund",
    "Iata": "KSU",
    "Airport": "Kvernberget",
    "Lat": 63.111781,
    "Lon": 7.824522
  },
  {
    "Country": "Norway",
    "City": "Kjeller",
    "Iata": "",
    "Airport": "Kjeller",
    "Lat": 59.969336,
    "Lon": 11.036089
  },
  {
    "Country": "Norway",
    "City": "Kirkenes",
    "Iata": "KKN",
    "Airport": "Hoybuktmoen",
    "Lat": 69.725781,
    "Lon": 29.891295
  },
  {
    "Country": "Norway",
    "City": "Farsund",
    "Iata": "FAN",
    "Airport": "Lista",
    "Lat": 58.099486,
    "Lon": 6.62605
  },
  {
    "Country": "Norway",
    "City": "Molde",
    "Iata": "MOL",
    "Airport": "Aro",
    "Lat": 62.744722,
    "Lon": 7.2625
  },
  {
    "Country": "Norway",
    "City": "Mosjoen",
    "Iata": "MJF",
    "Airport": "Kjaerstad",
    "Lat": 65.783997,
    "Lon": 13.214914
  },
  {
    "Country": "Norway",
    "City": "Lakselv",
    "Iata": "LKL",
    "Airport": "Banak",
    "Lat": 70.068814,
    "Lon": 24.973489
  },
  {
    "Country": "Norway",
    "City": "Notodden",
    "Iata": "NTB",
    "Airport": "Notodden",
    "Lat": 59.565683,
    "Lon": 9.212222
  },
  {
    "Country": "Norway",
    "City": "Orland",
    "Iata": "OLA",
    "Airport": "Orland",
    "Lat": 63.698908,
    "Lon": 9.604003
  },
  {
    "Country": "Norway",
    "City": "Roros",
    "Iata": "RRS",
    "Airport": "Roros",
    "Lat": 62.578411,
    "Lon": 11.342347
  },
  {
    "Country": "Norway",
    "City": "Rygge",
    "Iata": "RYG",
    "Airport": "Moss",
    "Lat": 59.378933,
    "Lon": 10.785389
  },
  {
    "Country": "Norway",
    "City": "Svalbard",
    "Iata": "LYR",
    "Airport": "Longyear",
    "Lat": 78.246111,
    "Lon": 15.465556
  },
  {
    "Country": "Norway",
    "City": "Skien",
    "Iata": "SKE",
    "Airport": "Geiteryggen",
    "Lat": 59.185,
    "Lon": 9.566944
  },
  {
    "Country": "Norway",
    "City": "Stord",
    "Iata": "SRP",
    "Airport": "Sorstokken",
    "Lat": 59.791925,
    "Lon": 5.34085
  },
  {
    "Country": "Norway",
    "City": "Sandnessjoen",
    "Iata": "SSJ",
    "Airport": "Stokka",
    "Lat": 65.956828,
    "Lon": 12.468944
  },
  {
    "Country": "Norway",
    "City": "Tromso",
    "Iata": "TOS",
    "Airport": "Langnes",
    "Lat": 69.683333,
    "Lon": 18.918919
  },
  {
    "Country": "Norway",
    "City": "Sandefjord",
    "Iata": "TRF",
    "Airport": "Torp",
    "Lat": 59.186703,
    "Lon": 10.258628
  },
  {
    "Country": "Norway",
    "City": "Trondheim",
    "Iata": "TRD",
    "Airport": "Vaernes",
    "Lat": 63.457556,
    "Lon": 10.92425
  },
  {
    "Country": "Norway",
    "City": "Stavanger",
    "Iata": "SVG",
    "Airport": "Sola",
    "Lat": 58.876778,
    "Lon": 5.637856
  },
  {
    "Country": "Poland",
    "City": "Warsaw",
    "Iata": "",
    "Airport": "Babice",
    "Lat": 52.268494,
    "Lon": 20.911047
  },
  {
    "Country": "Poland",
    "City": "Gdansk",
    "Iata": "GDN",
    "Airport": "Lech Walesa",
    "Lat": 54.377569,
    "Lon": 18.466222
  },
  {
    "Country": "Poland",
    "City": "Krakow",
    "Iata": "KRK",
    "Airport": "Balice",
    "Lat": 50.077731,
    "Lon": 19.784836
  },
  {
    "Country": "Poland",
    "City": "Katowice",
    "Iata": "",
    "Airport": "Muchowiec",
    "Lat": 50.238147,
    "Lon": 19.034181
  },
  {
    "Country": "Poland",
    "City": "Katowice",
    "Iata": "KTW",
    "Airport": "Pyrzowice",
    "Lat": 50.474253,
    "Lon": 19.080019
  },